<?xml version="1.0" encoding="ISO-8859-1"?>
<kml xmlns="http://earth.google.com/kml/2.0"><Folder><Placemark><name>Concepción sánchez guerrero&gt;34-9</name><Point><coordinates>-5.60302,36.01327,0</coordinates></Point></Placemark><Placemark><name>Jose manuel checa ceballos&gt;34-95</name><Point><coordinates>-5.60235,36.01337,0</coordinates></Point></Placemark><Placemark><name>Gil de valera-gil peña&gt;34-956680</name><Point><coordinates>-5.6058,36.01559,0</coordinates></Point></Placemark><Placemark><name>Miguel lópez negrette&gt;34-9565709</name><Point><coordinates>-5.44567,36.10802,0</coordinates></Point></Placemark><Placemark><name>Ana soto vázquez&gt;34-956601990</name><Point><coordinates>-5.43963,36.10949,0</coordinates></Point></Placemark><Placemark><name>Fabiola mejías larque&gt;34-9566012</name><Point><coordinates>-5.46049,36.11309,0</coordinates></Point></Placemark><Placemark><name>Nuria gómez montes de oca&gt;34-956</name><Point><coordinates>-5.4468,36.11713,0</coordinates></Point></Placemark><Placemark><name>Maria gloria rivas vega&gt;34-95660</name><Point><coordinates>-5.44875,36.12097,0</coordinates></Point></Placemark><Placemark><name>Maria rosa almagro platero&gt;34-95</name><Point><coordinates>-5.44645,36.1286,0</coordinates></Point></Placemark><Placemark><name>Alcalá rivas-alcalá carles&gt;34-95</name><Point><coordinates>-5.44576,36.12879,0</coordinates></Point></Placemark><Placemark><name>Rivas muñoz&gt;34-956663707</name><Point><coordinates>-5.44696,36.13082,0</coordinates></Point></Placemark><Placemark><name>Luz clara badia de rojas&gt;34-9566</name><Point><coordinates>-5.44554,36.13122,0</coordinates></Point></Placemark><Placemark><name>Gerardo de villegas muñoz&gt;34-956</name><Point><coordinates>-5.44757,36.13124,0</coordinates></Point></Placemark><Placemark><name>Eduardo corrales garcía&gt;34-95666</name><Point><coordinates>-5.44848,36.13201,0</coordinates></Point></Placemark><Placemark><name>Aguila torres&gt;34-956661257</name><Point><coordinates>-5.44982,36.13312,0</coordinates></Point></Placemark><Placemark><name>Milagros san salvador&gt;34-9566066</name><Point><coordinates>-5.44996,36.13499,0</coordinates></Point></Placemark><Placemark><name>Maria isabel núñez fluxa&gt;34-9566</name><Point><coordinates>-5.44826,36.13739,0</coordinates></Point></Placemark><Placemark><name>Elena delgado crespo&gt;34-95660056</name><Point><coordinates>-5.45131,36.11431,0</coordinates></Point></Placemark><Placemark><name>Carmen ana rivas vega&gt;34-9566046</name><Point><coordinates>-5.45712,36.11898,0</coordinates></Point></Placemark><Placemark><name>Juán josé núñez fluxa&gt;34-9566051</name><Point><coordinates>-5.45517,36.12083,0</coordinates></Point></Placemark><Placemark><name>Jose miguel rojas sola&gt;34-956602</name><Point><coordinates>-5.45253,36.12334,0</coordinates></Point></Placemark><Placemark><name>Manuela bartolomé aranda&gt;34-9566</name><Point><coordinates>-5.45012,36.13047,0</coordinates></Point></Placemark><Placemark><name>Sofía aguado maestro&gt;34-95666278</name><Point><coordinates>-5.45916,36.13076,0</coordinates></Point></Placemark><Placemark><name>Isabel rubio jimeno&gt;34-956662851</name><Point><coordinates>-5.45242,36.13293,0</coordinates></Point></Placemark><Placemark><name>Pine méndez - vázquez hervás</name><Point><coordinates>-5.45565,36.13359,0</coordinates></Point></Placemark><Placemark><name>Maria de los angeles jiménez lóp</name><Point><coordinates>-5.45186,36.13505,0</coordinates></Point></Placemark><Placemark><name>Maria luz morillas fernández&gt;34-</name><Point><coordinates>-5.4556,36.13608,0</coordinates></Point></Placemark><Placemark><name>Manuel maría rodriguez clavero&gt;3</name><Point><coordinates>-5.45803,36.13705,0</coordinates></Point></Placemark><Placemark><name>Juán crespo sánchez&gt;34-956661591</name><Point><coordinates>-5.45068,36.13924,0</coordinates></Point></Placemark><Placemark><name>Esteban zuazo gallego&gt;34-9566642</name><Point><coordinates>-5.45697,36.14213,0</coordinates></Point></Placemark><Placemark><name>Marina cano molina&gt;34-956634852</name><Point><coordinates>-5.45452,36.15824,0</coordinates></Point></Placemark><Placemark><name>Domingo bautista martín</name><Point><coordinates>-5.49233,36.18549,0</coordinates></Point></Placemark><Placemark><name>Vicente núñez batlles&gt;34-9567860</name><Point><coordinates>-5.43128,36.21242,0</coordinates></Point></Placemark><Placemark><name>Maria luisa coello pérez&gt;34-9561</name><Point><coordinates>-5.34813,36.15802,0</coordinates></Point></Placemark><Placemark><name>Jose antonio nestares lópez&gt;34-9</name><Point><coordinates>-5.34907,36.16156,0</coordinates></Point></Placemark><Placemark><name>Federico arredondo romero&gt;34-956</name><Point><coordinates>-5.3465,36.16201,0</coordinates></Point></Placemark><Placemark><name>Joaquín manuel calvo valdayo</name><Point><coordinates>-5.35035,36.16217,0</coordinates></Point></Placemark><Placemark><name>Carlos jaime muñoz corral&gt;34-956</name><Point><coordinates>-5.34814,36.1627,0</coordinates></Point></Placemark><Placemark><name>Juan antonio dominguez guerrero</name><Point><coordinates>-5.34903,36.16426,0</coordinates></Point></Placemark><Placemark><name>Fernández pastor - arredondo fer</name><Point><coordinates>-5.34963,36.16595,0</coordinates></Point></Placemark><Placemark><name>Maria isabel jiménez martínez&gt;34</name><Point><coordinates>-5.34764,36.16675,0</coordinates></Point></Placemark><Placemark><name>Plácido moreno camacho&gt;34-956172</name><Point><coordinates>-5.34209,36.16696,0</coordinates></Point></Placemark><Placemark><name>Jose miguel hoyos roca&gt;34-956763</name><Point><coordinates>-5.3451,36.16717,0</coordinates></Point></Placemark><Placemark><name>Josefina bonelo calle&gt;34-9567620</name><Point><coordinates>-5.34608,36.16814,0</coordinates></Point></Placemark><Placemark><name>José lópez aguilera&gt;34-956106636</name><Point><coordinates>-5.3406,36.1691,0</coordinates></Point></Placemark><Placemark><name>Maria de los angeles san luis re</name><Point><coordinates>-5.34126,36.17094,0</coordinates></Point></Placemark><Placemark><name>Francisco esteban orozco cabrera</name><Point><coordinates>-5.3443,36.17226,0</coordinates></Point></Placemark><Placemark><name>Cadenas beltrán - cadenas cuadra</name><Point><coordinates>-5.33758,36.17295,0</coordinates></Point></Placemark><Placemark><name>Rafael garcía-duarte garcía&gt;34-9</name><Point><coordinates>-5.35481,36.16299,0</coordinates></Point></Placemark><Placemark><name>Rosa maria de hoyos roca&gt;34-9561</name><Point><coordinates>-5.35201,36.16606,0</coordinates></Point></Placemark><Placemark><name>Maria de los angeles sánchez med</name><Point><coordinates>-5.36014,36.16621,0</coordinates></Point></Placemark><Placemark><name>Elisa ruiz infante&gt;34-956762990</name><Point><coordinates>-5.35569,36.16632,0</coordinates></Point></Placemark><Placemark><name>Teodoro zar alcoba&gt;34-956100024</name><Point><coordinates>-5.35361,36.16677,0</coordinates></Point></Placemark><Placemark><name>Clavijo pérez-navarro mañasco&gt;34</name><Point><coordinates>-5.36353,36.1683,0</coordinates></Point></Placemark><Placemark><name>Francisco olmo barrionuevo&gt;34-95</name><Point><coordinates>-5.35701,36.16894,0</coordinates></Point></Placemark><Placemark><name>Julio garcía durante&gt;34-95669879</name><Point><coordinates>-5.37927,36.1799,0</coordinates></Point></Placemark><Placemark><name>Maria esther ramos vázquez&gt;34-95</name><Point><coordinates>-5.38788,36.18172,0</coordinates></Point></Placemark><Placemark><name>Sánchez piñero - vidal lozano&gt;34</name><Point><coordinates>-5.3845,36.21144,0</coordinates></Point></Placemark><Placemark><name>Francisco garcía villanueva&gt;34-9</name><Point><coordinates>-5.92304,36.18806,0</coordinates></Point></Placemark><Placemark><name>Jesús morillo romero&gt;34-95643028</name><Point><coordinates>-5.92224,36.19047,0</coordinates></Point></Placemark><Placemark><name>Lara palma-lara bueno&gt;34-9564302</name><Point><coordinates>-5.92047,36.19121,0</coordinates></Point></Placemark><Placemark><name>Luis malvaz vázquez</name><Point><coordinates>-5.91724,36.19386,0</coordinates></Point></Placemark><Placemark><name>Quiros lara-quirós cárdenas&gt;34-9</name><Point><coordinates>-5.92333,36.19398,0</coordinates></Point></Placemark><Placemark><name>Jose matas jiménez&gt;34-956450214</name><Point><coordinates>-5.96564,36.25109,0</coordinates></Point></Placemark><Placemark><name>Maria de la cruz andujar barbare</name><Point><coordinates>-5.96889,36.25199,0</coordinates></Point></Placemark><Placemark><name>Amalia alvarez castro&gt;34-9564500</name><Point><coordinates>-5.96632,36.25363,0</coordinates></Point></Placemark><Placemark><name>María josé pérez basallote&gt;34-95</name><Point><coordinates>-6.0877,36.27595,0</coordinates></Point></Placemark><Placemark><name>Juan tesoro lumbreras&gt;34-9564423</name><Point><coordinates>-6.08831,36.27938,0</coordinates></Point></Placemark><Placemark><name>Victoria díaz casado&gt;34-95644037</name><Point><coordinates>-6.08564,36.28065,0</coordinates></Point></Placemark><Placemark><name>Maria jesús ferrándiz sánchez</name><Point><coordinates>-6.1523,36.31863,0</coordinates></Point></Placemark><Placemark><name>Pilar galera pita&gt;34-956230756</name><Point><coordinates>-6.12858,36.40744,0</coordinates></Point></Placemark><Placemark><name>Jiménez romero - domínguez jimén</name><Point><coordinates>-6.15964,36.41566,0</coordinates></Point></Placemark><Placemark><name>Teresa fernández del barrio&gt;34-9</name><Point><coordinates>-6.13013,36.41719,0</coordinates></Point></Placemark><Placemark><name>Galán de ahumada-villanueva ruiz</name><Point><coordinates>-6.14704,36.4182,0</coordinates></Point></Placemark><Placemark><name>Rodriguez barberá - rodriguez gu</name><Point><coordinates>-6.14963,36.41856,0</coordinates></Point></Placemark><Placemark><name>Francisco garcía benítez&gt;34-9564</name><Point><coordinates>-6.14256,36.42411,0</coordinates></Point></Placemark><Placemark><name>Pilar luisa quevedo galindo&gt;34-9</name><Point><coordinates>-6.14655,36.42718,0</coordinates></Point></Placemark><Placemark><name>Juan diego rodulfo castillo&gt;34-9</name><Point><coordinates>-6.2055,36.45122,0</coordinates></Point></Placemark><Placemark><name>Jose carlos campos bañales&gt;34-95</name><Point><coordinates>-6.19965,36.46231,0</coordinates></Point></Placemark><Placemark><name>Jose maría gómez quiros&gt;34-95688</name><Point><coordinates>-6.19863,36.46363,0</coordinates></Point></Placemark><Placemark><name>Juan ramón guerra castro&gt;34-9568</name><Point><coordinates>-6.19498,36.46643,0</coordinates></Point></Placemark><Placemark><name>Maria isabel cuadrado lozano&gt;34-</name><Point><coordinates>-6.19459,36.46656,0</coordinates></Point></Placemark><Placemark><name>Manuel rodríguez prada&gt;34-956881</name><Point><coordinates>-6.19203,36.46754,0</coordinates></Point></Placemark><Placemark><name>Francisco matute duarte&gt;34-95688</name><Point><coordinates>-6.1959,36.46864,0</coordinates></Point></Placemark><Placemark><name>García roldán y prieto&gt;34-956890</name><Point><coordinates>-6.19869,36.46949,0</coordinates></Point></Placemark><Placemark><name>Jesús campos muñoz&gt;34-956890431</name><Point><coordinates>-6.19288,36.46949,0</coordinates></Point></Placemark><Placemark><name>Manuel rubín de celis y cosio&gt;34</name><Point><coordinates>-6.19731,36.46987,0</coordinates></Point></Placemark><Placemark><name>Fernando pérez garcía&gt;34-9568815</name><Point><coordinates>-6.19547,36.47034,0</coordinates></Point></Placemark><Placemark><name>Laura lópez pelayo&gt;34-956891458</name><Point><coordinates>-6.19684,36.47137,0</coordinates></Point></Placemark><Placemark><name>Cándido gonzález ruiz&gt;34-9568819</name><Point><coordinates>-6.19424,36.47332,0</coordinates></Point></Placemark><Placemark><name>Victoria gómez fernández&gt;34-9568</name><Point><coordinates>-6.19637,36.4735,0</coordinates></Point></Placemark><Placemark><name>Tomás collantes vázquez de castr</name><Point><coordinates>-6.19006,36.47404,0</coordinates></Point></Placemark><Placemark><name>Ramón cozar pardo&gt;34-956892104</name><Point><coordinates>-6.19309,36.47467,0</coordinates></Point></Placemark><Placemark><name>María del rosario ortus ruiz&gt;34-</name><Point><coordinates>-6.19594,36.47948,0</coordinates></Point></Placemark><Placemark><name>Maria angeles fernández garcía&gt;3</name><Point><coordinates>-6.20756,36.4565,0</coordinates></Point></Placemark><Placemark><name>Maria del carmen barreiro vidal</name><Point><coordinates>-6.20369,36.45695,0</coordinates></Point></Placemark><Placemark><name>Guerra palacios - guerra vélez&gt;3</name><Point><coordinates>-6.20341,36.45803,0</coordinates></Point></Placemark><Placemark><name>Jose maría mendoza delgado&gt;34-95</name><Point><coordinates>-6.20167,36.45953,0</coordinates></Point></Placemark><Placemark><name>Revilla delgado - pérez revilla</name><Point><coordinates>-6.20026,36.45967,0</coordinates></Point></Placemark><Placemark><name>María del carmen socias manzano</name><Point><coordinates>-6.21074,36.46007,0</coordinates></Point></Placemark><Placemark><name>Cándido gonzález peñalver&gt;34-956</name><Point><coordinates>-6.20116,36.46286,0</coordinates></Point></Placemark><Placemark><name>Rosario jérez raya&gt;34-956274882</name><Point><coordinates>-6.27239,36.49834,0</coordinates></Point></Placemark><Placemark><name>Isabel vázquez rodriguez&gt;34-9562</name><Point><coordinates>-6.27359,36.5004,0</coordinates></Point></Placemark><Placemark><name>Julián cantera cavestany&gt;34-9562</name><Point><coordinates>-6.27488,36.50268,0</coordinates></Point></Placemark><Placemark><name>María josefa beltrami de grado&gt;3</name><Point><coordinates>-6.27449,36.50416,0</coordinates></Point></Placemark><Placemark><name>Maria del carmen alonso utrera&gt;3</name><Point><coordinates>-6.27516,36.50539,0</coordinates></Point></Placemark><Placemark><name>Gloria maría moreno campillo&gt;34-</name><Point><coordinates>-6.27778,36.50555,0</coordinates></Point></Placemark><Placemark><name>Encarnación alvarez ruíz&gt;34-9562</name><Point><coordinates>-6.26632,36.50695,0</coordinates></Point></Placemark><Placemark><name>Javier jesús marín fernández&gt;34-</name><Point><coordinates>-6.27765,36.50753,0</coordinates></Point></Placemark><Placemark><name>Milagrosa cuervas-mons lazaga&gt;34</name><Point><coordinates>-6.27264,36.50764,0</coordinates></Point></Placemark><Placemark><name>Elicia sánchez conejo&gt;34-9562542</name><Point><coordinates>-6.27546,36.50812,0</coordinates></Point></Placemark><Placemark><name>Alva mendaro-alva núñez&gt;34-95620</name><Point><coordinates>-6.27401,36.50988,0</coordinates></Point></Placemark><Placemark><name>Francisca pulito aranguren&gt;34-95</name><Point><coordinates>-6.27642,36.50989,0</coordinates></Point></Placemark><Placemark><name>Maria luisa ortiz mateos&gt;34-9562</name><Point><coordinates>-6.27165,36.5111,0</coordinates></Point></Placemark><Placemark><name>Manuel guerrero zieza&gt;34-9562513</name><Point><coordinates>-6.27996,36.5116,0</coordinates></Point></Placemark><Placemark><name>Albarracín valderrama-albarracín</name><Point><coordinates>-6.28035,36.51218,0</coordinates></Point></Placemark><Placemark><name>Juana maria manzorro bonilla&gt;34-</name><Point><coordinates>-6.27997,36.5124,0</coordinates></Point></Placemark><Placemark><name>Jose manuel torre martín&gt;34-9562</name><Point><coordinates>-6.27583,36.51258,0</coordinates></Point></Placemark><Placemark><name>Jose agustín asensio fernández&gt;3</name><Point><coordinates>-6.27828,36.51366,0</coordinates></Point></Placemark><Placemark><name>Francisco benito aguado&gt;34-95625</name><Point><coordinates>-6.27684,36.51438,0</coordinates></Point></Placemark><Placemark><name>Manuel pérez carvo&gt;34-956252452</name><Point><coordinates>-6.27931,36.51662,0</coordinates></Point></Placemark><Placemark><name>Concepción carazo rodriguez&gt;34-9</name><Point><coordinates>-6.27314,36.51697,0</coordinates></Point></Placemark><Placemark><name>Vicente cervera y jarava&gt;34-9562</name><Point><coordinates>-6.28408,36.51718,0</coordinates></Point></Placemark><Placemark><name>Maria del carmen alvarez gonzále</name><Point><coordinates>-6.27664,36.518,0</coordinates></Point></Placemark><Placemark><name>Modesto berraquero gonzález&gt;34-9</name><Point><coordinates>-6.27777,36.51818,0</coordinates></Point></Placemark><Placemark><name>Juán andrés alvarez gonzález&gt;34-</name><Point><coordinates>-6.2821,36.51854,0</coordinates></Point></Placemark><Placemark><name>Juan antonio artacho rojas&gt;34-95</name><Point><coordinates>-5.14574,36.4243,0</coordinates></Point></Placemark><Placemark><name>Juan manuel usero vilchez&gt;34-952</name><Point><coordinates>-5.14487,36.42604,0</coordinates></Point></Placemark><Placemark><name>Juan del rio mapelli&gt;34-95278070</name><Point><coordinates>-4.9892,36.48408,0</coordinates></Point></Placemark><Placemark><name>Concepción jiménez gálvez&gt;34-952</name><Point><coordinates>-5.32129,36.51924,0</coordinates></Point></Placemark><Placemark><name>María del carmen medina martín&gt;3</name><Point><coordinates>-5.04561,36.52265,0</coordinates></Point></Placemark><Placemark><name>Isicio henares villoria&gt;34-95215</name><Point><coordinates>-5.27647,36.57315,0</coordinates></Point></Placemark><Placemark><name>Fernando garcía domínguez</name><Point><coordinates>-4.9488,36.58338,0</coordinates></Point></Placemark><Placemark><name>Fermín luis garcía torralba&gt;34-9</name><Point><coordinates>-4.78177,36.5024,0</coordinates></Point></Placemark><Placemark><name>Francisco aragón aragón&gt;34-95249</name><Point><coordinates>-4.67914,36.50399,0</coordinates></Point></Placemark><Placemark><name>Muñoz ballesta-romero martínez&gt;3</name><Point><coordinates>-4.62483,36.53253,0</coordinates></Point></Placemark><Placemark><name>José antonio martín buendía&gt;34-9</name><Point><coordinates>-4.62375,36.53864,0</coordinates></Point></Placemark><Placemark><name>Juan de dios garcía molina&gt;34-95</name><Point><coordinates>-4.62944,36.5432,0</coordinates></Point></Placemark><Placemark><name>Gonzalo mateos muller&gt;34-9524716</name><Point><coordinates>-4.62849,36.54602,0</coordinates></Point></Placemark><Placemark><name>Francisco javier jiménez gómez&gt;3</name><Point><coordinates>-4.88232,36.50999,0</coordinates></Point></Placemark><Placemark><name>Bonifacio garcía sánchez&gt;34-9527</name><Point><coordinates>-4.89276,36.5105,0</coordinates></Point></Placemark><Placemark><name>Fernando sánchez garcía&gt;34-95277</name><Point><coordinates>-4.88229,36.51166,0</coordinates></Point></Placemark><Placemark><name>Sebastián blázquez venzala&gt;34-95</name><Point><coordinates>-4.89607,36.515,0</coordinates></Point></Placemark><Placemark><name>José rodríguez peñalver&gt;34-95285</name><Point><coordinates>-4.88723,36.51567,0</coordinates></Point></Placemark><Placemark><name>José bernardo balbuena ruiz&gt;34-9</name><Point><coordinates>-4.63401,36.55064,0</coordinates></Point></Placemark><Placemark><name>León vázquez-padilla campos&gt;34-9</name><Point><coordinates>-4.62021,36.55205,0</coordinates></Point></Placemark><Placemark><name>Rosario mena escobar&gt;34-95246323</name><Point><coordinates>-4.6407,36.595,0</coordinates></Point></Placemark><Placemark><name>José luis quintela rivera&gt;34-952</name><Point><coordinates>-4.68828,36.64302,0</coordinates></Point></Placemark><Placemark><name>Rafael garcía vázquez</name><Point><coordinates>-4.75901,36.65935,0</coordinates></Point></Placemark><Placemark><name>María del carmen carmena rico&gt;34</name><Point><coordinates>-6.27906,36.51879,0</coordinates></Point></Placemark><Placemark><name>María antonia ruiz marín&gt;34-9562</name><Point><coordinates>-6.28226,36.51892,0</coordinates></Point></Placemark><Placemark><name>Rosalia garcía herruzo&gt;34-956251</name><Point><coordinates>-6.27796,36.51986,0</coordinates></Point></Placemark><Placemark><name>Maria teresa ruiz fernández de m</name><Point><coordinates>-6.28531,36.52088,0</coordinates></Point></Placemark><Placemark><name>Maria del rosario asencio marcha</name><Point><coordinates>-6.28177,36.52156,0</coordinates></Point></Placemark><Placemark><name>Jose ramón zamora cabeza&gt;34-9562</name><Point><coordinates>-6.28637,36.52273,0</coordinates></Point></Placemark><Placemark><name>Clotilde aguilar siles&gt;34-956270</name><Point><coordinates>-6.28599,36.52404,0</coordinates></Point></Placemark><Placemark><name>Caro serrano - alvarez caro&gt;34-9</name><Point><coordinates>-6.18787,36.52708,0</coordinates></Point></Placemark><Placemark><name>Maria jesús alcayde alcayde&gt;34-9</name><Point><coordinates>-6.28881,36.52711,0</coordinates></Point></Placemark><Placemark><name>Luna montes&gt;34-956831155</name><Point><coordinates>-6.18465,36.52722,0</coordinates></Point></Placemark><Placemark><name>Eduardo brandariz fernández&gt;34-9</name><Point><coordinates>-6.1806,36.52747,0</coordinates></Point></Placemark><Placemark><name>Inmaculada gonzález mateos&gt;34-95</name><Point><coordinates>-6.1901,36.5278,0</coordinates></Point></Placemark><Placemark><name>Adoración casado roca&gt;34-9562537</name><Point><coordinates>-6.2902,36.52864,0</coordinates></Point></Placemark><Placemark><name>Isabel maria benítez fernández&gt;3</name><Point><coordinates>-6.19047,36.5287,0</coordinates></Point></Placemark><Placemark><name>Javier sánchez medina contrera&gt;3</name><Point><coordinates>-6.19467,36.52906,0</coordinates></Point></Placemark><Placemark><name>Casilda hernández gudino&gt;34-9568</name><Point><coordinates>-6.1935,36.52951,0</coordinates></Point></Placemark><Placemark><name>Miguel fernández bobadilla&gt;34-95</name><Point><coordinates>-6.29276,36.52981,0</coordinates></Point></Placemark><Placemark><name>Maria jesús casado mañés&gt;34-9562</name><Point><coordinates>-6.30133,36.52986,0</coordinates></Point></Placemark><Placemark><name>Jose vergara sánchez&gt;34-95621261</name><Point><coordinates>-6.2961,36.53044,0</coordinates></Point></Placemark><Placemark><name>Maria teresa colorado durán&gt;34-9</name><Point><coordinates>-6.29427,36.53049,0</coordinates></Point></Placemark><Placemark><name>Jose luís jiménez carrasco&gt;34-95</name><Point><coordinates>-6.29694,36.53107,0</coordinates></Point></Placemark><Placemark><name>Francisco josé campo-cossio cria</name><Point><coordinates>-6.29616,36.53186,0</coordinates></Point></Placemark><Placemark><name>Catalina matos delgado&gt;34-956213</name><Point><coordinates>-6.29649,36.53342,0</coordinates></Point></Placemark><Placemark><name>Felisa foulquie chereguini&gt;34-95</name><Point><coordinates>-6.29696,36.53394,0</coordinates></Point></Placemark><Placemark><name>Jose luís ortega gómez&gt;34-956211</name><Point><coordinates>-6.29829,36.53422,0</coordinates></Point></Placemark><Placemark><name>Felipe mozo vergara</name><Point><coordinates>-6.2957,36.53427,0</coordinates></Point></Placemark><Placemark><name>María teresa corrales sendino&gt;34</name><Point><coordinates>-6.29902,36.5343,0</coordinates></Point></Placemark><Placemark><name>Maria teresa lancis cobos&gt;34-956</name><Point><coordinates>-6.29172,36.53599,0</coordinates></Point></Placemark><Placemark><name>Adolfo morillo romero&gt;34-9562116</name><Point><coordinates>-6.29379,36.536,0</coordinates></Point></Placemark><Placemark><name>Manuel gallardo jiménez&gt;34-95621</name><Point><coordinates>-6.30016,36.5325,0</coordinates></Point></Placemark><Placemark><name>Pérez lópez pérez alberni&gt;34-956</name><Point><coordinates>-6.30295,36.5332,0</coordinates></Point></Placemark><Placemark><name>Alfonso badia de rojas&gt;34-956223</name><Point><coordinates>-6.30103,36.53358,0</coordinates></Point></Placemark><Placemark><name>Rufo perdiguero pérez&gt;34-9562141</name><Point><coordinates>-6.30022,36.53488,0</coordinates></Point></Placemark><Placemark><name>Maria reposo bermejo babiano&gt;34-</name><Point><coordinates>-6.19341,36.53739,0</coordinates></Point></Placemark><Placemark><name>Felisa bernal román&gt;34-956561337</name><Point><coordinates>-6.259,36.57862,0</coordinates></Point></Placemark><Placemark><name>Hermanos saralegui echevarria</name><Point><coordinates>-6.22291,36.58285,0</coordinates></Point></Placemark><Placemark><name>Rocio borrero galván&gt;34-95685515</name><Point><coordinates>-6.2351,36.59196,0</coordinates></Point></Placemark><Placemark><name>Francisco berbel delgado&gt;34-9568</name><Point><coordinates>-6.23045,36.59243,0</coordinates></Point></Placemark><Placemark><name>Concepción de antonio gallego</name><Point><coordinates>-6.2442,36.59302,0</coordinates></Point></Placemark><Placemark><name>Salmerón de valdivia&gt;34-95685532</name><Point><coordinates>-6.23846,36.59328,0</coordinates></Point></Placemark><Placemark><name>Milagrosa barbera moreno&gt;34-9568</name><Point><coordinates>-6.23517,36.5942,0</coordinates></Point></Placemark><Placemark><name>Bernardo costales pérez&gt;34-95685</name><Point><coordinates>-6.2385,36.59494,0</coordinates></Point></Placemark><Placemark><name>Yolanda abad martínez&gt;34-9565411</name><Point><coordinates>-6.22693,36.59729,0</coordinates></Point></Placemark><Placemark><name>Maria josefa martínez guerra&gt;34-</name><Point><coordinates>-6.22902,36.59743,0</coordinates></Point></Placemark><Placemark><name>Jose maria viquería lamadrid&gt;34-</name><Point><coordinates>-6.22641,36.59801,0</coordinates></Point></Placemark><Placemark><name>Mercedes muñoz arjona&gt;34-9568505</name><Point><coordinates>-6.22929,36.59908,0</coordinates></Point></Placemark><Placemark><name>Ramón gil de reboleño insua&gt;34-9</name><Point><coordinates>-6.22703,36.59915,0</coordinates></Point></Placemark><Placemark><name>Maria victoria ordónez morejón&gt;3</name><Point><coordinates>-6.25762,36.58066,0</coordinates></Point></Placemark><Placemark><name>Mariana ferrer sánchez&gt;34-956480</name><Point><coordinates>-6.26989,36.59644,0</coordinates></Point></Placemark><Placemark><name>Juan enrique moratalla gómez&gt;34-</name><Point><coordinates>-6.22714,36.60118,0</coordinates></Point></Placemark><Placemark><name>Maria puy ochoa crespo&gt;34-956485</name><Point><coordinates>-6.16516,36.61716,0</coordinates></Point></Placemark><Placemark><name>Ignacio colón torrent&gt;34-9568508</name><Point><coordinates>-6.23467,36.60128,0</coordinates></Point></Placemark><Placemark><name>Jose luis ballesteros benjumea&gt;3</name><Point><coordinates>-6.22518,36.60155,0</coordinates></Point></Placemark><Placemark><name>Maria dolores corbellini gonzále</name><Point><coordinates>-6.21468,36.60747,0</coordinates></Point></Placemark><Placemark><name>Jose maria giráldez deiro&gt;34-956</name><Point><coordinates>-6.21714,36.60765,0</coordinates></Point></Placemark><Placemark><name>Jose maria pastor delgado&gt;34-956</name><Point><coordinates>-6.22645,36.60783,0</coordinates></Point></Placemark><Placemark><name>Julio sancho jaldón&gt;34-956858922</name><Point><coordinates>-6.22227,36.60831,0</coordinates></Point></Placemark><Placemark><name>Jose manuel rodríguez lópez&gt;34-9</name><Point><coordinates>-6.28009,36.6105,0</coordinates></Point></Placemark><Placemark><name>Maria del carmen santos martín&gt;3</name><Point><coordinates>-6.36161,36.62091,0</coordinates></Point></Placemark><Placemark><name>Rodríguez rubio - rodríguez sant</name><Point><coordinates>-6.35484,36.62413,0</coordinates></Point></Placemark><Placemark><name>Margarita alonso villaro&gt;34-9568</name><Point><coordinates>-6.37581,36.62802,0</coordinates></Point></Placemark><Placemark><name>María belén guerrero parra</name><Point><coordinates>-6.08193,36.65486,0</coordinates></Point></Placemark><Placemark><name>Irene miranda lópez&gt;34-956156658</name><Point><coordinates>-6.10258,36.65996,0</coordinates></Point></Placemark><Placemark><name>Rafael rio de la iglesia&gt;34-9563</name><Point><coordinates>-6.13383,36.67367,0</coordinates></Point></Placemark><Placemark><name>Olga cabrera medina&gt;34-956140476</name><Point><coordinates>-6.12418,36.67504,0</coordinates></Point></Placemark><Placemark><name>Pedro muñoz-pan prieto&gt;34-956332</name><Point><coordinates>-6.12458,36.67596,0</coordinates></Point></Placemark><Placemark><name>Ernesto cervilla lozano&gt;34-95614</name><Point><coordinates>-6.13364,36.67714,0</coordinates></Point></Placemark><Placemark><name>Elena gámez periañez&gt;34-95634322</name><Point><coordinates>-6.12974,36.67723,0</coordinates></Point></Placemark><Placemark><name>Margarita parra reguera&gt;34-95634</name><Point><coordinates>-6.13014,36.67743,0</coordinates></Point></Placemark><Placemark><name>Julio bonald marina&gt;34-956323423</name><Point><coordinates>-6.11156,36.67887,0</coordinates></Point></Placemark><Placemark><name>Carmen garcía portillo&gt;34-956341</name><Point><coordinates>-6.12072,36.67945,0</coordinates></Point></Placemark><Placemark><name>Llorente píriz - muñoz pan llore</name><Point><coordinates>-6.13117,36.67956,0</coordinates></Point></Placemark><Placemark><name>Maria soledad rodríguez martínez</name><Point><coordinates>-6.12944,36.6799,0</coordinates></Point></Placemark><Placemark><name>Maria josefa cervilla lópez&gt;34-9</name><Point><coordinates>-6.13508,36.68,0</coordinates></Point></Placemark><Placemark><name>Miguel fontadez florido&gt;34-95634</name><Point><coordinates>-6.13335,36.68098,0</coordinates></Point></Placemark><Placemark><name>Maria angeles muñoz osta&gt;34-9563</name><Point><coordinates>-6.1379,36.68106,0</coordinates></Point></Placemark><Placemark><name>Ramón jiménez lucena&gt;34-95633018</name><Point><coordinates>-6.11924,36.68204,0</coordinates></Point></Placemark><Placemark><name>Maria isabel cabrera sánchez&gt;34-</name><Point><coordinates>-6.14213,36.68257,0</coordinates></Point></Placemark><Placemark><name>Inmaculada becerro figueroa&gt;34-9</name><Point><coordinates>-6.13607,36.68302,0</coordinates></Point></Placemark><Placemark><name>Maria dolores sevilla llamas&gt;34-</name><Point><coordinates>-6.13325,36.68362,0</coordinates></Point></Placemark><Placemark><name>Bohorquez garcía - carbajo espej</name><Point><coordinates>-6.13652,36.68412,0</coordinates></Point></Placemark><Placemark><name>Vázquez&gt;34-956342394</name><Point><coordinates>-6.14263,36.68434,0</coordinates></Point></Placemark><Placemark><name>Juán lópez alvarez&gt;34-956343325</name><Point><coordinates>-6.14413,36.68455,0</coordinates></Point></Placemark><Placemark><name>Roa del castillo&gt;34-956344353</name><Point><coordinates>-6.12151,36.68455,0</coordinates></Point></Placemark><Placemark><name>Carlos gaspar miralles pérez&gt;34-</name><Point><coordinates>-6.13604,36.68463,0</coordinates></Point></Placemark><Placemark><name>Enrique ameneiro busto&gt;34-956344</name><Point><coordinates>-6.11399,36.68478,0</coordinates></Point></Placemark><Placemark><name>Josefa pérez garcía&gt;34-956349337</name><Point><coordinates>-6.1456,36.68492,0</coordinates></Point></Placemark><Placemark><name>Magdalena gonzález chaves&gt;34-956</name><Point><coordinates>-6.132,36.68606,0</coordinates></Point></Placemark><Placemark><name>Ramón pérez moreno&gt;34-956336798</name><Point><coordinates>-6.11093,36.68656,0</coordinates></Point></Placemark><Placemark><name>Joaquín morales serna&gt;34-9563356</name><Point><coordinates>-6.10221,36.68685,0</coordinates></Point></Placemark><Placemark><name>Agarrado luna-montaño rubio&gt;34-9</name><Point><coordinates>-6.14526,36.68698,0</coordinates></Point></Placemark><Placemark><name>Moreno santos-moreno gonzález&gt;34</name><Point><coordinates>-6.14205,36.68941,0</coordinates></Point></Placemark><Placemark><name>Francisco manuel garcía fernánde</name><Point><coordinates>-6.13015,36.69107,0</coordinates></Point></Placemark><Placemark><name>Mateos y bonet&gt;34-956334224</name><Point><coordinates>-6.11382,36.69232,0</coordinates></Point></Placemark><Placemark><name>Juan zajara espinosa&gt;34-95618444</name><Point><coordinates>-6.143,36.69281,0</coordinates></Point></Placemark><Placemark><name>Joaquín gómez canga-arguelles&gt;34</name><Point><coordinates>-6.12994,36.694,0</coordinates></Point></Placemark><Placemark><name>Francisca toribio carmona&gt;34-956</name><Point><coordinates>-6.10229,36.69469,0</coordinates></Point></Placemark><Placemark><name>Rodríguez-izquierdo rodríguez iz</name><Point><coordinates>-6.14643,36.69527,0</coordinates></Point></Placemark><Placemark><name>Amalia alonso cortiguera&gt;34-9563</name><Point><coordinates>-6.14701,36.69567,0</coordinates></Point></Placemark><Placemark><name>Diego josé sanz gonzález&gt;34-9563</name><Point><coordinates>-6.10506,36.69612,0</coordinates></Point></Placemark><Placemark><name>Julia beser ruiz&gt;34-956304508</name><Point><coordinates>-6.10544,36.69681,0</coordinates></Point></Placemark><Placemark><name>Esperanza rojo izquierdo&gt;34-9563</name><Point><coordinates>-6.13849,36.69807,0</coordinates></Point></Placemark><Placemark><name>Jose guillermo alvarez gelo&gt;34-9</name><Point><coordinates>-6.14169,36.69825,0</coordinates></Point></Placemark><Placemark><name>Mari paz sánchez martínez&gt;34-956</name><Point><coordinates>-6.13558,36.69944,0</coordinates></Point></Placemark><Placemark><name>Ramón de gracia zorrilla&gt;34-9563</name><Point><coordinates>-6.10635,36.70375,0</coordinates></Point></Placemark><Placemark><name>Consuelo encinas gonzález&gt;34-956</name><Point><coordinates>-6.09959,36.70729,0</coordinates></Point></Placemark><Placemark><name>Ramón novo rodriguez de medina&gt;3</name><Point><coordinates>-6.1246,36.70427,0</coordinates></Point></Placemark><Placemark><name>Francisco domínguez jiménez</name><Point><coordinates>-6.41936,36.71252,0</coordinates></Point></Placemark><Placemark><name>Maria teresa lópez alvaro&gt;34-956</name><Point><coordinates>-5.86393,36.52082,0</coordinates></Point></Placemark><Placemark><name>Carmen gonzález barrios&gt;34-95616</name><Point><coordinates>-5.80068,36.60633,0</coordinates></Point></Placemark><Placemark><name>Fermín rodríguez fatou&gt;34-956342</name><Point><coordinates>-5.96607,36.61825,0</coordinates></Point></Placemark><Placemark><name>María teresa martín jiménez&gt;34-9</name><Point><coordinates>-4.51155,36.601,0</coordinates></Point></Placemark><Placemark><name>Mercedes manrique ortiz&gt;34-95238</name><Point><coordinates>-4.4985,36.62075,0</coordinates></Point></Placemark><Placemark><name>Rosa maría blanco bautista&gt;34-95</name><Point><coordinates>-4.5061,36.62181,0</coordinates></Point></Placemark><Placemark><name>José martín pérez&gt;34-952381815</name><Point><coordinates>-4.50326,36.62215,0</coordinates></Point></Placemark><Placemark><name>María dolores delgado caballero</name><Point><coordinates>-4.50201,36.62637,0</coordinates></Point></Placemark><Placemark><name>Gustavo caro menéndez&gt;34-9524104</name><Point><coordinates>-4.56443,36.66067,0</coordinates></Point></Placemark><Placemark><name>Juan quesada marín&gt;34-952410231</name><Point><coordinates>-4.56278,36.66136,0</coordinates></Point></Placemark><Placemark><name>Rafael martínez domínguez&gt;34-952</name><Point><coordinates>-4.44998,36.68549,0</coordinates></Point></Placemark><Placemark><name>María isabel morente avilés&gt;34-9</name><Point><coordinates>-4.45061,36.69446,0</coordinates></Point></Placemark><Placemark><name>Dolores pérez fernández&gt;34-95223</name><Point><coordinates>-4.44888,36.69604,0</coordinates></Point></Placemark><Placemark><name>María luisa plaza martín&gt;34-9523</name><Point><coordinates>-4.44571,36.69784,0</coordinates></Point></Placemark><Placemark><name>José ignacio santos alguacil&gt;34-</name><Point><coordinates>-4.44273,36.69929,0</coordinates></Point></Placemark><Placemark><name>María isabel ocaña luengo&gt;34-952</name><Point><coordinates>-4.45768,36.69662,0</coordinates></Point></Placemark><Placemark><name>Teresa bellas jiménez-laiglesia</name><Point><coordinates>-4.45432,36.69675,0</coordinates></Point></Placemark><Placemark><name>Rio pérez piaya&gt;34-952315296</name><Point><coordinates>-4.44088,36.70015,0</coordinates></Point></Placemark><Placemark><name>Hernández ramírez-hernández wert</name><Point><coordinates>-4.36354,36.7204,0</coordinates></Point></Placemark><Placemark><name>Rafael marín zafra&gt;34-952290397</name><Point><coordinates>-4.36085,36.72087,0</coordinates></Point></Placemark><Placemark><name>Farmacia C. Calderon - Malaga  - C: Pª Cerrado Calderon 4</name><Point><coordinates>-4.38278,36.72278,0</coordinates></Point></Placemark><Placemark><name>Juan morales soler&gt;34-952216381</name><Point><coordinates>-4.39377,36.72349,0</coordinates></Point></Placemark><Placemark><name>Farmacia Limonar - Malaga - C: Paseo del Limonar 12</name><Point><coordinates>-4.3986,36.72444,0</coordinates></Point></Placemark><Placemark><name>Farmacia Castillon - Malaga &lt; 34-952221428</name><Point><coordinates>-4.3986,36.72472,0</coordinates></Point></Placemark><Placemark><name>Farmacia Pª de Limonar 14- Malaga &lt;34-952603153</name><Point><coordinates>-4.3986,36.72472,0</coordinates></Point></Placemark><Placemark><name>Farmacia C. Calderon - Malaga &lt;34-952294798</name><Point><coordinates>-4.38167,36.72611,0</coordinates></Point></Placemark><Placemark><name>Farmacia Parque Clavero - Malaga&lt; 34-952296831</name><Point><coordinates>-4.39083,36.72694,0</coordinates></Point></Placemark><Placemark><name>Farmacia Clavero - Malaga - C: Miguel Indurain 15</name><Point><coordinates>-4.38971,36.72778,0</coordinates></Point></Placemark><Placemark><name>Concepción garnica cerezo&gt;34-952</name><Point><coordinates>-4.44423,36.70159,0</coordinates></Point></Placemark><Placemark><name>María amelia calero secall&gt;34-95</name><Point><coordinates>-4.45055,36.70246,0</coordinates></Point></Placemark><Placemark><name>España garcía espantaleón ruiz&gt;3</name><Point><coordinates>-4.43321,36.70304,0</coordinates></Point></Placemark><Placemark><name>Lourdes ropero lachhein&gt;34-95234</name><Point><coordinates>-4.43767,36.70494,0</coordinates></Point></Placemark><Placemark><name>Barceló rubio-barceló sierra&gt;34-</name><Point><coordinates>-4.43614,36.70668,0</coordinates></Point></Placemark><Placemark><name>María josefa lópez pineño&gt;34-952</name><Point><coordinates>-4.43872,36.707,0</coordinates></Point></Placemark><Placemark><name>Gerardo mora montes&gt;34-952310432</name><Point><coordinates>-4.44182,36.70859,0</coordinates></Point></Placemark><Placemark><name>Rafael paez dueñas&gt;34-952321934</name><Point><coordinates>-4.44393,36.70861,0</coordinates></Point></Placemark><Placemark><name>Rafael mir de rojas&gt;34-952333840</name><Point><coordinates>-4.44503,36.71027,0</coordinates></Point></Placemark><Placemark><name>Crlos domingo torres&gt;34-95231089</name><Point><coordinates>-4.42673,36.7117,0</coordinates></Point></Placemark><Placemark><name>Luis robledo garcía&gt;34-952316540</name><Point><coordinates>-4.42795,36.71223,0</coordinates></Point></Placemark><Placemark><name>Esperanza muñoz torregrosa&gt;34-95</name><Point><coordinates>-4.43761,36.71229,0</coordinates></Point></Placemark><Placemark><name>Porras molina-porras ballesteros</name><Point><coordinates>-4.42889,36.71289,0</coordinates></Point></Placemark><Placemark><name>Ana vera castillo&gt;34-952213236</name><Point><coordinates>-4.42384,36.71336,0</coordinates></Point></Placemark><Placemark><name>Juan josé guerrero vázquez&gt;34-95</name><Point><coordinates>-4.42509,36.71429,0</coordinates></Point></Placemark><Placemark><name>Manuel pérez-piaya mateos&gt;34-952</name><Point><coordinates>-4.43004,36.71479,0</coordinates></Point></Placemark><Placemark><name>Vicente rafael nieto sola&gt;34-952</name><Point><coordinates>-4.42677,36.71487,0</coordinates></Point></Placemark><Placemark><name>Federico castillo ruiz&gt;34-952330</name><Point><coordinates>-4.43816,36.71553,0</coordinates></Point></Placemark><Placemark><name>María concepción rico nestares&gt;3</name><Point><coordinates>-4.42527,36.71765,0</coordinates></Point></Placemark><Placemark><name>María petra garcía carmona&gt;34-95</name><Point><coordinates>-4.43275,36.71775,0</coordinates></Point></Placemark><Placemark><name>María teresa gómez berjón&gt;34-952</name><Point><coordinates>-4.43933,36.71788,0</coordinates></Point></Placemark><Placemark><name>Concepción nestares garcía-trevi</name><Point><coordinates>-4.42286,36.71868,0</coordinates></Point></Placemark><Placemark><name>Farmacia Aguado - Malaga &lt;34-952306187</name><Point><coordinates>-4.40916,36.71917,0</coordinates></Point></Placemark><Placemark><name>Farmacia  Castillon - Malaga - C; Maestranza 20</name><Point><coordinates>-4.40916,36.71972,0</coordinates></Point></Placemark><Placemark><name>José y soledad blázquez garcía</name><Point><coordinates>-4.42277,36.71989,0</coordinates></Point></Placemark><Placemark><name>Elisa asensi mendoza&gt;34-95221482</name><Point><coordinates>-4.42324,36.72085,0</coordinates></Point></Placemark><Placemark><name>Inocencia camacho gonzález&gt;34-95</name><Point><coordinates>-4.41064,36.72095,0</coordinates></Point></Placemark><Placemark><name>Farmacia Pries - Malaga - C: Av de Pries 2</name><Point><coordinates>-4.40721,36.72111,0</coordinates></Point></Placemark><Placemark><name>José manuel fiestas loza&gt;34-9522</name><Point><coordinates>-4.42494,36.72121,0</coordinates></Point></Placemark><Placemark><name>José maría laza garcía&gt;34-952227</name><Point><coordinates>-4.42012,36.72134,0</coordinates></Point></Placemark><Placemark><name>Eloísa pérez-piaya garcía&gt;34-952</name><Point><coordinates>-4.42901,36.72143,0</coordinates></Point></Placemark><Placemark><name>Fernando garnica zurita&gt;34-95221</name><Point><coordinates>-4.41913,36.72193,0</coordinates></Point></Placemark><Placemark><name>Pedro luis galindo morales&gt;34-95</name><Point><coordinates>-4.42403,36.72274,0</coordinates></Point></Placemark><Placemark><name>Carlos pérez sauco&gt;34-952227844</name><Point><coordinates>-4.41816,36.72314,0</coordinates></Point></Placemark><Placemark><name>Alberto barrionuevo morente&gt;34-9</name><Point><coordinates>-4.44316,36.72412,0</coordinates></Point></Placemark><Placemark><name>Federico aguado gómez&gt;34-9523061</name><Point><coordinates>-4.43696,36.72536,0</coordinates></Point></Placemark><Placemark><name>María luisa espantaleón gómez&gt;34</name><Point><coordinates>-4.42061,36.72536,0</coordinates></Point></Placemark><Placemark><name>Estrella barrionuevo ostos&gt;34-95</name><Point><coordinates>-4.42655,36.72571,0</coordinates></Point></Placemark><Placemark><name>Rita garcía fernández&gt;34-9522590</name><Point><coordinates>-4.41231,36.72584,0</coordinates></Point></Placemark><Placemark><name>Eduardo garnica navarro&gt;34-95207</name><Point><coordinates>-4.4352,36.72618,0</coordinates></Point></Placemark><Placemark><name>Enrique lópez de vinuesa pérez</name><Point><coordinates>-4.43943,36.72676,0</coordinates></Point></Placemark><Placemark><name>José león guerrero rivera&gt;34-952</name><Point><coordinates>-4.41448,36.72684,0</coordinates></Point></Placemark><Placemark><name>María del carmen escuder miralpe</name><Point><coordinates>-4.44011,36.72784,0</coordinates></Point></Placemark><Placemark><name>María jesús coronado gonzález&gt;34</name><Point><coordinates>-4.41378,36.72861,0</coordinates></Point></Placemark><Placemark><name>María teresa avila sáez&gt;34-95225</name><Point><coordinates>-4.425,36.7299,0</coordinates></Point></Placemark><Placemark><name>Cristina laynez rubio&gt;34-9522543</name><Point><coordinates>-4.4166,36.73093,0</coordinates></Point></Placemark><Placemark><name>Rafael mir macias&gt;34-952254799</name><Point><coordinates>-4.4199,36.73138,0</coordinates></Point></Placemark><Placemark><name>Farmacia.-  Malaga - Pinos del Limonar- C: Sierra de Grazalema 3</name><Point><coordinates>-4.40306,36.73138,0</coordinates></Point></Placemark><Placemark><name>Carlos pérez-bryan hafner&gt;34-952</name><Point><coordinates>-4.42844,36.73144,0</coordinates></Point></Placemark><Placemark><name>Farmacia Pinos del Limonar - Malaga &lt;34-952221292</name><Point><coordinates>-4.40306,36.73167,0</coordinates></Point></Placemark><Placemark><name>Farmacia Pries - Malaga &lt; 34-952214935</name><Point><coordinates>-4.40306,36.73167,0</coordinates></Point></Placemark><Placemark><name>Leandro martínez carrasco&gt;34-952</name><Point><coordinates>-4.43154,36.73257,0</coordinates></Point></Placemark><Placemark><name>Nieto castells y nieto martín&gt;34</name><Point><coordinates>-4.42989,36.73288,0</coordinates></Point></Placemark><Placemark><name>Pedro fernández lópez de uralde</name><Point><coordinates>-4.42171,36.73516,0</coordinates></Point></Placemark><Placemark><name>Pablo antonio tiessler gálvez&gt;34</name><Point><coordinates>-4.41624,36.73606,0</coordinates></Point></Placemark><Placemark><name>María dolores arrojo agudo&gt;34-95</name><Point><coordinates>-4.42325,36.74026,0</coordinates></Point></Placemark><Placemark><name>Carolina alvarez de aubarede&gt;34-</name><Point><coordinates>-4.42325,36.74398,0</coordinates></Point></Placemark><Placemark><name>Consuelo clavijo benítez de cast</name><Point><coordinates>-4.41842,36.74942,0</coordinates></Point></Placemark><Placemark><name>María eloísa molina sánchez&gt;34-9</name><Point><coordinates>-4.42217,36.74974,0</coordinates></Point></Placemark><Placemark><name>José antonio avila marinetto&gt;34-</name><Point><coordinates>-4.48878,36.70854,0</coordinates></Point></Placemark><Placemark><name>La araña&gt;34-952290699</name><Point><coordinates>-4.33826,36.71379,0</coordinates></Point></Placemark><Placemark><name>José maría abaurre reina&gt;34-9524</name><Point><coordinates>-4.28271,36.71482,0</coordinates></Point></Placemark><Placemark><name>Rafael antonio artacho cañadas&gt;3</name><Point><coordinates>-4.47054,36.72309,0</coordinates></Point></Placemark><Placemark><name>Farmacia Teatinos - Malaga &lt;34-952610836</name><Point><coordinates>-4.4611,36.72472,0</coordinates></Point></Placemark><Placemark><name>Pablo ramos escalante&gt;34-9521815</name><Point><coordinates>-5.12017,36.63093,0</coordinates></Point></Placemark><Placemark><name>María teresa delgado baena&gt;34-95</name><Point><coordinates>-5.16519,36.74261,0</coordinates></Point></Placemark><Placemark><name>Inmaculada carreño garcía&gt;34-952</name><Point><coordinates>-5.16153,36.74512,0</coordinates></Point></Placemark><Placemark><name>Eduardo corrales marquez&gt;34-9528</name><Point><coordinates>-5.1647,36.74536,0</coordinates></Point></Placemark><Placemark><name>Remedios galindo villegas&gt;34-952</name><Point><coordinates>-5.16875,36.74856,0</coordinates></Point></Placemark><Placemark><name>Rafael jiménez marín&gt;34-95216517</name><Point><coordinates>-5.14015,36.79639,0</coordinates></Point></Placemark><Placemark><name>Luisa rodriguez peñalver&gt;34-9567</name><Point><coordinates>-5.65611,36.65584,0</coordinates></Point></Placemark><Placemark><name>Castro de la puerta-castro díaz</name><Point><coordinates>-5.7977,36.7429,0</coordinates></Point></Placemark><Placemark><name>Pilar reina gonzález&gt;34-95670025</name><Point><coordinates>-5.80534,36.74781,0</coordinates></Point></Placemark><Placemark><name>Ildefonso guerrero seijo&gt;34-9567</name><Point><coordinates>-5.80997,36.75001,0</coordinates></Point></Placemark><Placemark><name>Francisco javier bernal bernal&gt;3</name><Point><coordinates>-5.78736,36.76073,0</coordinates></Point></Placemark><Placemark><name>Macarena molina medel&gt;34-9567043</name><Point><coordinates>-5.81226,36.75143,0</coordinates></Point></Placemark><Placemark><name>Navarro domínguez - navarro mari</name><Point><coordinates>-5.8137,36.75408,0</coordinates></Point></Placemark><Placemark><name>Emilio muñoz méndez&gt;34-956700209</name><Point><coordinates>-5.81863,36.75434,0</coordinates></Point></Placemark><Placemark><name>Juliana carro de la rosa&gt;34-9567</name><Point><coordinates>-5.50517,36.75867,0</coordinates></Point></Placemark><Placemark><name>Jose antonio mas bernad&gt;34-95672</name><Point><coordinates>-5.55534,36.78743,0</coordinates></Point></Placemark><Placemark><name>Jesús jose maria soler sánchez&gt;3</name><Point><coordinates>-5.74345,36.81565,0</coordinates></Point></Placemark><Placemark><name>Pilar gonzález ruiz&gt;34-956712231</name><Point><coordinates>-5.74355,36.81805,0</coordinates></Point></Placemark><Placemark><name>Eduardo rubiales prado&gt;34-956462</name><Point><coordinates>-5.44806,36.67273,0</coordinates></Point></Placemark><Placemark><name>Carlos torres garcía&gt;34-95640001</name><Point><coordinates>-5.38746,36.69638,0</coordinates></Point></Placemark><Placemark><name>Rosario sánchez de medina salmer</name><Point><coordinates>-5.44371,36.67646,0</coordinates></Point></Placemark><Placemark><name>Javier sánchez de medina&gt;34-9564</name><Point><coordinates>-5.44254,36.67678,0</coordinates></Point></Placemark><Placemark><name>Evaristo pérez blanco&gt;34-9561321</name><Point><coordinates>-5.36763,36.75886,0</coordinates></Point></Placemark><Placemark><name>Florencio fuentes artacho&gt;34-956</name><Point><coordinates>-5.39124,36.83988,0</coordinates></Point></Placemark><Placemark><name>Molero - salguero - arenas&gt;34-95</name><Point><coordinates>-5.3218,36.85394,0</coordinates></Point></Placemark><Placemark><name>Inmaculada fernández fatou&gt;34-95</name><Point><coordinates>-5.64619,36.85942,0</coordinates></Point></Placemark><Placemark><name>Nicolás y gabriel sotomayor flor</name><Point><coordinates>-5.40677,36.88066,0</coordinates></Point></Placemark><Placemark><name>José francisco gonzález vilas&gt;34</name><Point><coordinates>-3.53267,36.72437,0</coordinates></Point></Placemark><Placemark><name>Andrés fernando muller lópez</name><Point><coordinates>-3.68776,36.73241,0</coordinates></Point></Placemark><Placemark><name>Germán yáñez sánchez</name><Point><coordinates>-3.69974,36.73249,0</coordinates></Point></Placemark><Placemark><name>Maria luisa garcía martín de vil</name><Point><coordinates>-3.68996,36.73257,0</coordinates></Point></Placemark><Placemark><name>Isabel caballero contreras&gt;34-95</name><Point><coordinates>-3.51899,36.74325,0</coordinates></Point></Placemark><Placemark><name>Elisa sánchez mariscal&gt;34-958601</name><Point><coordinates>-3.52376,36.74364,0</coordinates></Point></Placemark><Placemark><name>Margarita de valdivia carvayo&gt;34</name><Point><coordinates>-3.51672,36.74477,0</coordinates></Point></Placemark><Placemark><name>Encarnación pérez medina&gt;34-9586</name><Point><coordinates>-3.58693,36.74586,0</coordinates></Point></Placemark><Placemark><name>Julio antonio fernández saez&gt;34-</name><Point><coordinates>-3.51869,36.74589,0</coordinates></Point></Placemark><Placemark><name>Antonio chaves moyano&gt;34-9586003</name><Point><coordinates>-3.52155,36.74597,0</coordinates></Point></Placemark><Placemark><name>Miguel yaguas ruíz de la fuente</name><Point><coordinates>-3.51814,36.74622,0</coordinates></Point></Placemark><Placemark><name>Juán carlos lópez rodriguez&gt;34-9</name><Point><coordinates>-3.51592,36.74655,0</coordinates></Point></Placemark><Placemark><name>Eva torres morente concha&gt;34-958</name><Point><coordinates>-3.51079,36.74678,0</coordinates></Point></Placemark><Placemark><name>Purificación martín morales&gt;34-9</name><Point><coordinates>-3.51924,36.74689,0</coordinates></Point></Placemark><Placemark><name>Hernández garcía&gt;34-958600732</name><Point><coordinates>-3.51865,36.75136,0</coordinates></Point></Placemark><Placemark><name>Ignacio correa gonzález&gt;34-95860</name><Point><coordinates>-3.5153,36.75215,0</coordinates></Point></Placemark><Placemark><name>Inmaculada martínez lópez&gt;34-958</name><Point><coordinates>-3.48042,36.91807,0</coordinates></Point></Placemark><Placemark><name>Purificación molina sánchez&gt;34-9</name><Point><coordinates>-3.47547,36.91935,0</coordinates></Point></Placemark><Placemark><name>José cerrudo ruiz de la torre&gt;34</name><Point><coordinates>-2.62549,36.72449,0</coordinates></Point></Placemark><Placemark><name>Mario cerrudo ruiz de la torre&gt;3</name><Point><coordinates>-2.61952,36.73299,0</coordinates></Point></Placemark><Placemark><name>Maria Jose Navarro Picon</name><Point><coordinates>-2.67242,36.75011,0</coordinates></Point></Placemark><Placemark><name>Eugenio Puerto Cuenca. Roquets de Mar (Almeria)</name><Point><coordinates>-2.61115,36.76585,0</coordinates></Point></Placemark><Placemark><name>Farmacia. Las Salinas.Avda Reino de España</name><Point><coordinates>-2.60944,36.77259,0</coordinates></Point></Placemark><Placemark><name>Maria Jesus Valdecasas Valverde</name><Point><coordinates>-2.64869,36.79922,0</coordinates></Point></Placemark><Placemark><name>Manuel Fernandez Gonzalez 950 33 07 80</name><Point><coordinates>-2.68076,36.75365,0</coordinates></Point></Placemark><Placemark><name>Vicente rodríguez vegazo&gt;34-9504</name><Point><coordinates>-2.82121,36.76986,0</coordinates></Point></Placemark><Placemark><name>Marcos zenón martín fernández&gt;34</name><Point><coordinates>-2.82081,36.7722,0</coordinates></Point></Placemark><Placemark><name>José manuel martín torres&gt;34-950</name><Point><coordinates>-2.81659,36.77281,0</coordinates></Point></Placemark><Placemark><name>Farmacia.Maria Victoria Sanchez Linares</name><Point><coordinates>-2.64925,36.80069,0</coordinates></Point></Placemark><Placemark><name>Farmacia. Calle Marmoles</name><Point><coordinates>-2.59873,36.80662,0</coordinates></Point></Placemark><Placemark><name>Farmacia. Juan Carlos Navarro Perez</name><Point><coordinates>-2.58011,36.81209,0</coordinates></Point></Placemark><Placemark><name>Leopoldo garcía - valdecasas val</name><Point><coordinates>-2.62134,36.805,0</coordinates></Point></Placemark><Placemark><name>Farmacia Carlos III. Otilia Mena Navarro. (El Parador-Almeria)</name><Point><coordinates>-2.60157,36.80798,0</coordinates></Point></Placemark><Placemark><name>Almería Avda Cabo de Gata  275</name><Point><coordinates>-2.44071,36.82041,0</coordinates></Point></Placemark><Placemark><name>Farmacia</name><Point><coordinates>-2.44424,36.82307,0</coordinates></Point></Placemark><Placemark><name>Paloma mallol goytre&gt;34-95055971</name><Point><coordinates>-2.52571,36.82508,0</coordinates></Point></Placemark><Placemark><name>Farmacia</name><Point><coordinates>-2.45019,36.82857,0</coordinates></Point></Placemark><Placemark><name>Parafarmacia Almeria</name><Point><coordinates>-2.45127,36.82891,0</coordinates></Point></Placemark><Placemark><name>Farmacia  Cabo De Gata 100</name><Point><coordinates>-2.45287,36.83021,0</coordinates></Point></Placemark><Placemark><name>Farmacia  Cabo De Gata 33</name><Point><coordinates>-2.45708,36.83176,0</coordinates></Point></Placemark><Placemark><name>Farmacia</name><Point><coordinates>-2.45012,36.8329,0</coordinates></Point></Placemark><Placemark><name>José navarro berenguel&gt;34-950621</name><Point><coordinates>-2.46198,36.83536,0</coordinates></Point></Placemark><Placemark><name>Farmacia</name><Point><coordinates>-2.46426,36.83562,0</coordinates></Point></Placemark><Placemark><name>José waisen enciso&gt;34-950270549</name><Point><coordinates>-2.46017,36.83578,0</coordinates></Point></Placemark><Placemark><name>Farmacia  Soldado Español 18</name><Point><coordinates>-2.45795,36.83602,0</coordinates></Point></Placemark><Placemark><name>Farmacia  La Estación 36</name><Point><coordinates>-2.45709,36.83665,0</coordinates></Point></Placemark><Placemark><name>Almería C General Tamayo 17</name><Point><coordinates>-2.46321,36.83681,0</coordinates></Point></Placemark><Placemark><name>Farmacia  Plaza Virgen Del Mar 1</name><Point><coordinates>-2.46514,36.8372,0</coordinates></Point></Placemark><Placemark><name>Farmacia  Pedro Jover 1</name><Point><coordinates>-2.46928,36.83731,0</coordinates></Point></Placemark><Placemark><name>Farmacia  Carrera De Los Picos 1</name><Point><coordinates>-2.45981,36.83739,0</coordinates></Point></Placemark><Placemark><name>José martínez jiménez&gt;34-9502252</name><Point><coordinates>-2.45726,36.83747,0</coordinates></Point></Placemark><Placemark><name>Farmacia</name><Point><coordinates>-2.45587,36.8376,0</coordinates></Point></Placemark><Placemark><name>Farmacia  Muelle 35</name><Point><coordinates>-2.47919,36.83762,0</coordinates></Point></Placemark><Placemark><name>Jesús fernández soriano</name><Point><coordinates>-2.48061,36.83779,0</coordinates></Point></Placemark><Placemark><name>Almería Paseo de Almería 51</name><Point><coordinates>-2.46326,36.83787,0</coordinates></Point></Placemark><Placemark><name>Farmacia</name><Point><coordinates>-2.46003,36.83789,0</coordinates></Point></Placemark><Placemark><name>Guadalupe iriarte sánchez&gt;34-950</name><Point><coordinates>-2.45348,36.83789,0</coordinates></Point></Placemark><Placemark><name>Almería C Conde Ofalia 18</name><Point><coordinates>-2.46409,36.83791,0</coordinates></Point></Placemark><Placemark><name>Farmacia</name><Point><coordinates>-2.46553,36.83826,0</coordinates></Point></Placemark><Placemark><name>Farmacia  Chafarinas 1</name><Point><coordinates>-2.47203,36.8384,0</coordinates></Point></Placemark><Placemark><name>Farmacia  Doctor Gregorio Marañó</name><Point><coordinates>-2.45866,36.83847,0</coordinates></Point></Placemark><Placemark><name>Plaza garcía&gt;34-950237703</name><Point><coordinates>-2.4634,36.83858,0</coordinates></Point></Placemark><Placemark><name>Farmacia  Alcázar s/n</name><Point><coordinates>-2.4512,36.83879,0</coordinates></Point></Placemark><Placemark><name>Manuel gallego almansa&gt;34-950235</name><Point><coordinates>-2.46111,36.839,0</coordinates></Point></Placemark><Placemark><name>Julia rojas sola&gt;34-950236192</name><Point><coordinates>-2.47373,36.83911,0</coordinates></Point></Placemark><Placemark><name>Farmacia</name><Point><coordinates>-2.45795,36.83919,0</coordinates></Point></Placemark><Placemark><name>Juan rivera rodríguez&gt;34-9502300</name><Point><coordinates>-2.46349,36.83929,0</coordinates></Point></Placemark><Placemark><name>Farmacia  Calle Linares 37</name><Point><coordinates>-2.47727,36.83953,0</coordinates></Point></Placemark><Placemark><name>Farmacia</name><Point><coordinates>-2.46585,36.83972,0</coordinates></Point></Placemark><Placemark><name>Farmacia</name><Point><coordinates>-2.45106,36.83977,0</coordinates></Point></Placemark><Placemark><name>Almería Paseo de Almería 19</name><Point><coordinates>-2.46353,36.83979,0</coordinates></Point></Placemark><Placemark><name>Almería C Castelar 6</name><Point><coordinates>-2.4641,36.84017,0</coordinates></Point></Placemark><Placemark><name>Almudena martín lópez&gt;34-9502309</name><Point><coordinates>-2.46372,36.84032,0</coordinates></Point></Placemark><Placemark><name>Almería Rambla del Obispo Orberá 22</name><Point><coordinates>-2.46186,36.84035,0</coordinates></Point></Placemark><Placemark><name>Farmacia  Rambla Del Obispo Orbe</name><Point><coordinates>-2.46209,36.84069,0</coordinates></Point></Placemark><Placemark><name>Almería Paseo de Almería 4</name><Point><coordinates>-2.46376,36.84091,0</coordinates></Point></Placemark><Placemark><name>Farmacia  Paseo De Almería 4</name><Point><coordinates>-2.46352,36.84098,0</coordinates></Point></Placemark><Placemark><name>Farmacia</name><Point><coordinates>-2.45174,36.84106,0</coordinates></Point></Placemark><Placemark><name>Farmacia</name><Point><coordinates>-2.46114,36.84117,0</coordinates></Point></Placemark><Placemark><name>José luis pascual molina&gt;34-9502</name><Point><coordinates>-2.46637,36.84129,0</coordinates></Point></Placemark><Placemark><name>Almería Puerta de Purchena</name><Point><coordinates>-2.4642,36.84172,0</coordinates></Point></Placemark><Placemark><name>Farmacia</name><Point><coordinates>-2.46368,36.84172,0</coordinates></Point></Placemark><Placemark><name>Farmacia  San Juan Bosco 32</name><Point><coordinates>-2.4549,36.84246,0</coordinates></Point></Placemark><Placemark><name>Modesta garcía simón&gt;34-95023854</name><Point><coordinates>-2.45895,36.8427,0</coordinates></Point></Placemark><Placemark><name>Almería Avda de Pablo Iglesias</name><Point><coordinates>-2.46402,36.84286,0</coordinates></Point></Placemark><Placemark><name>Farmacia</name><Point><coordinates>-2.46243,36.84297,0</coordinates></Point></Placemark><Placemark><name>Joaquín rodríguez iribarne&gt;34-95</name><Point><coordinates>-2.46385,36.84302,0</coordinates></Point></Placemark><Placemark><name>Farmacia</name><Point><coordinates>-2.4608,36.84304,0</coordinates></Point></Placemark><Placemark><name>Begoña martínez lao&gt;34-950224791</name><Point><coordinates>-2.45021,36.84437,0</coordinates></Point></Placemark><Placemark><name>José martín mestres&gt;34-950250242</name><Point><coordinates>-2.45512,36.84452,0</coordinates></Point></Placemark><Placemark><name>Almería Avda de Pablo Iglesias 61</name><Point><coordinates>-2.46447,36.84471,0</coordinates></Point></Placemark><Placemark><name>Joaquín miranda membibre&gt;34-9502</name><Point><coordinates>-2.45554,36.84615,0</coordinates></Point></Placemark><Placemark><name>Farmacia  Fuentecica 24</name><Point><coordinates>-2.46897,36.8464,0</coordinates></Point></Placemark><Placemark><name>Farmacia  Calle Restoy 22</name><Point><coordinates>-2.46551,36.84651,0</coordinates></Point></Placemark><Placemark><name>Farmacia  Santa Isabel 27</name><Point><coordinates>-2.45491,36.8469,0</coordinates></Point></Placemark><Placemark><name>María del carmen fontán meana&gt;34</name><Point><coordinates>-2.4564,36.84727,0</coordinates></Point></Placemark><Placemark><name>Francisco zapata sánchez&gt;34-9502</name><Point><coordinates>-2.45881,36.84758,0</coordinates></Point></Placemark><Placemark><name>Farmacia</name><Point><coordinates>-2.45671,36.84769,0</coordinates></Point></Placemark><Placemark><name>Farmacia  Campoverde 4</name><Point><coordinates>-2.45931,36.84775,0</coordinates></Point></Placemark><Placemark><name>Farmacia  Largo Caballero 53</name><Point><coordinates>-2.46918,36.84785,0</coordinates></Point></Placemark><Placemark><name>Almería C Mirlo 1</name><Point><coordinates>-2.45059,36.84901,0</coordinates></Point></Placemark><Placemark><name>María linares romero&gt;34-95023081</name><Point><coordinates>-2.4606,36.84914,0</coordinates></Point></Placemark><Placemark><name>Farmacia  Marchales 41</name><Point><coordinates>-2.4583,36.8493,0</coordinates></Point></Placemark><Placemark><name>Farmacia  Haza De Acosta 118</name><Point><coordinates>-2.45109,36.84933,0</coordinates></Point></Placemark><Placemark><name>Farmacia</name><Point><coordinates>-2.45491,36.84981,0</coordinates></Point></Placemark><Placemark><name>Farmacia  Farmacia Avenida Alham</name><Point><coordinates>-2.44651,36.82595,0</coordinates></Point></Placemark><Placemark><name>Francisca chaves lozano&gt;34-95024</name><Point><coordinates>-2.44919,36.82683,0</coordinates></Point></Placemark><Placemark><name>Farmacia</name><Point><coordinates>-2.44598,36.82828,0</coordinates></Point></Placemark><Placemark><name>Almería C Bilbao 103</name><Point><coordinates>-2.44673,36.8283,0</coordinates></Point></Placemark><Placemark><name>Almería Avda de Madrid 2</name><Point><coordinates>-2.44889,36.83115,0</coordinates></Point></Placemark><Placemark><name>Farmacia</name><Point><coordinates>-2.44841,36.83343,0</coordinates></Point></Placemark><Placemark><name>Farmacia  Av Del Mediterráneo 23</name><Point><coordinates>-2.44758,36.84008,0</coordinates></Point></Placemark><Placemark><name>Farmacia  Manuel Azaña 137</name><Point><coordinates>-2.44282,36.84323,0</coordinates></Point></Placemark><Placemark><name>Farmacia  Mare Nostrum 48</name><Point><coordinates>-2.43092,36.85009,0</coordinates></Point></Placemark><Placemark><name>Almería Avda Mediterráneo</name><Point><coordinates>-2.44598,36.85284,0</coordinates></Point></Placemark><Placemark><name>Farmacia  Nuestra Señora Del Sal</name><Point><coordinates>-2.45285,36.85477,0</coordinates></Point></Placemark><Placemark><name>Farmacia</name><Point><coordinates>-2.44987,36.85797,0</coordinates></Point></Placemark><Placemark><name>Fernando josé martínez lópez&gt;34-</name><Point><coordinates>-2.4479,36.86063,0</coordinates></Point></Placemark><Placemark><name>Farmacia  Calle Teruel 39</name><Point><coordinates>-2.44724,36.86154,0</coordinates></Point></Placemark><Placemark><name>Fausto vilchez martínez&gt;34-95055</name><Point><coordinates>-2.656,36.87007,0</coordinates></Point></Placemark><Placemark><name>Luis martín guerrero&gt;34-95637065</name><Point><coordinates>-6.4326,36.73302,0</coordinates></Point></Placemark><Placemark><name>Luís martín castro palomino&gt;34-9</name><Point><coordinates>-6.43467,36.73743,0</coordinates></Point></Placemark><Placemark><name>Elisa maría alba garcía&gt;34-95637</name><Point><coordinates>-6.42237,36.73883,0</coordinates></Point></Placemark><Placemark><name>Manuel gutiérrez amerigo&gt;34-9563</name><Point><coordinates>-6.43606,36.73997,0</coordinates></Point></Placemark><Placemark><name>Diez galán - martínez diez&gt;34-95</name><Point><coordinates>-6.34849,36.77014,0</coordinates></Point></Placemark><Placemark><name>Francisco tomás lópez hurtado&gt;34</name><Point><coordinates>-6.34969,36.77217,0</coordinates></Point></Placemark><Placemark><name>Maria luisa vizoso laporte&gt;34-95</name><Point><coordinates>-6.36809,36.77262,0</coordinates></Point></Placemark><Placemark><name>Felipe trigo romero&gt;34-956363311</name><Point><coordinates>-6.34565,36.77523,0</coordinates></Point></Placemark><Placemark><name>Jose moyano algar&gt;34-956362915</name><Point><coordinates>-6.33911,36.78963,0</coordinates></Point></Placemark><Placemark><name>Concepción miler salmoral&gt;34-956</name><Point><coordinates>-6.33649,36.79999,0</coordinates></Point></Placemark><Placemark><name>Teodoro lara alvarez&gt;34-95636009</name><Point><coordinates>-6.36139,36.77436,0</coordinates></Point></Placemark><Placemark><name>Carlos piña pavón&gt;34-956360115</name><Point><coordinates>-6.35402,36.77769,0</coordinates></Point></Placemark><Placemark><name>Miguel fernández gonzález&gt;34-956</name><Point><coordinates>-6.35356,36.77872,0</coordinates></Point></Placemark><Placemark><name>Durán garcía - guerrero durán&gt;34</name><Point><coordinates>-6.35319,36.77891,0</coordinates></Point></Placemark><Placemark><name>Baltasar gonzález sánchez</name><Point><coordinates>-6.35983,36.78047,0</coordinates></Point></Placemark><Placemark><name>Maria teresa camarena guerrero&gt;3</name><Point><coordinates>-6.35403,36.78165,0</coordinates></Point></Placemark><Placemark><name>Manuel jalón morente</name><Point><coordinates>-3.73546,36.73523,0</coordinates></Point></Placemark><Placemark><name>Luis sáenz de buruaga y lerena&gt;3</name><Point><coordinates>-3.87643,36.74808,0</coordinates></Point></Placemark><Placemark><name>María del carmen acosta arce&gt;34-</name><Point><coordinates>-3.87501,36.75553,0</coordinates></Point></Placemark><Placemark><name>Manuel torres martínez&gt;34-958776</name><Point><coordinates>-3.6242,36.92871,0</coordinates></Point></Placemark><Placemark><name>Francisco lópez robles&gt;34-958795</name><Point><coordinates>-3.55157,36.94865,0</coordinates></Point></Placemark><Placemark><name>Luis oliveros fuentes</name><Point><coordinates>-3.01793,36.74828,0</coordinates></Point></Placemark><Placemark><name>Carlos velázquez - castro sagarr</name><Point><coordinates>-2.83424,36.78281,0</coordinates></Point></Placemark><Placemark><name>Mayol navarrete&gt;34-950490930</name><Point><coordinates>-2.94723,36.84378,0</coordinates></Point></Placemark><Placemark><name>Miguel navarrete guijosa&gt;34-9504</name><Point><coordinates>-2.94876,36.84632,0</coordinates></Point></Placemark><Placemark><name>Francisco fernández gonzález&gt;34-</name><Point><coordinates>-2.94959,36.84643,0</coordinates></Point></Placemark><Placemark><name>Farmacia  Calle Iglesia 19</name><Point><coordinates>-2.24371,36.77996,0</coordinates></Point></Placemark><Placemark><name>Almería C Real de La Cañada  61</name><Point><coordinates>-2.40648,36.83982,0</coordinates></Point></Placemark><Placemark><name>Almería C David de La Cañada  16</name><Point><coordinates>-2.40699,36.84095,0</coordinates></Point></Placemark><Placemark><name>Jose antonio galán ceballos&gt;34-9</name><Point><coordinates>-6.17443,36.78944,0</coordinates></Point></Placemark><Placemark><name>Maria isabel guerrero gonzález</name><Point><coordinates>-6.17431,36.86938,0</coordinates></Point></Placemark><Placemark><name>Juan hierro bustillo</name><Point><coordinates>-6.17672,36.87046,0</coordinates></Point></Placemark><Placemark><name>Jose luis salinas albert&gt;34-9559</name><Point><coordinates>-6.07919,36.91807,0</coordinates></Point></Placemark><Placemark><name>José luis pérez navarro&gt;34-95249</name><Point><coordinates>-4.70546,36.82537,0</coordinates></Point></Placemark><Placemark><name>Manuel aguilar jiménez&gt;34-952496</name><Point><coordinates>-4.70483,36.82703,0</coordinates></Point></Placemark><Placemark><name>Francisco javier florido alba&gt;34</name><Point><coordinates>-4.819,36.8516,0</coordinates></Point></Placemark><Placemark><name>Farmacia</name><Point><coordinates>-4.68252,36.93108,0</coordinates></Point></Placemark><Placemark><name>Juan carlos martín zafra&gt;34-9524</name><Point><coordinates>-4.68333,36.93132,0</coordinates></Point></Placemark><Placemark><name>María dolores villodres ramírez</name><Point><coordinates>-4.55809,37.01868,0</coordinates></Point></Placemark><Placemark><name>María isabel luque cabrera</name><Point><coordinates>-4.5508,37.02074,0</coordinates></Point></Placemark><Placemark><name>Martínez martínez-jiménez martín</name><Point><coordinates>-4.56447,37.02172,0</coordinates></Point></Placemark><Placemark><name>Valentín mozo durán&gt;34-956127123</name><Point><coordinates>-5.54301,36.9221,0</coordinates></Point></Placemark><Placemark><name>Francisco javier fernández martí</name><Point><coordinates>-5.54468,36.92351,0</coordinates></Point></Placemark><Placemark><name>Ignacio cid portillo&gt;34-95583032</name><Point><coordinates>-5.63718,37.07638,0</coordinates></Point></Placemark><Placemark><name>Felipe sanz soriano&gt;34-954850735</name><Point><coordinates>-5.46689,37.12142,0</coordinates></Point></Placemark><Placemark><name>José conde otero&gt;34-958364203</name><Point><coordinates>-3.8238,36.94876,0</coordinates></Point></Placemark><Placemark><name>Gabriel gámiz gámiz&gt;34-958350057</name><Point><coordinates>-3.98639,37.00698,0</coordinates></Point></Placemark><Placemark><name>Manuel joaquín gómez prieto&gt;34-9</name><Point><coordinates>-3.87684,37.11904,0</coordinates></Point></Placemark><Placemark><name>Jerónimo raya garcía-luján&gt;34-95</name><Point><coordinates>-3.66132,37.13734,0</coordinates></Point></Placemark><Placemark><name>David gómez parera&gt;34-958570352</name><Point><coordinates>-3.62623,37.1428,0</coordinates></Point></Placemark><Placemark><name>Dolores fernández rodríguez&gt;34-9</name><Point><coordinates>-2.96054,36.97269,0</coordinates></Point></Placemark><Placemark><name>Ramón moya garnica&gt;34-950513213</name><Point><coordinates>-2.89722,36.99245,0</coordinates></Point></Placemark><Placemark><name>Francisco montoro robles&gt;34-9587</name><Point><coordinates>-3.01517,37.00878,0</coordinates></Point></Placemark><Placemark><name>Eloy ruiz aguilera&gt;34-950350021</name><Point><coordinates>-2.79626,37.13341,0</coordinates></Point></Placemark><Placemark><name>Hidalgo medina e hidalgo villare</name><Point><coordinates>-4.91871,36.98299,0</coordinates></Point></Placemark><Placemark><name>Alcalá criado&gt;34-952182017</name><Point><coordinates>-5.02088,37.00083,0</coordinates></Point></Placemark><Placemark><name>Andrés mesa padilla&gt;34-952722523</name><Point><coordinates>-4.86078,37.04951,0</coordinates></Point></Placemark><Placemark><name>José maría pérez peña&gt;34-9527466</name><Point><coordinates>-4.86598,37.12522,0</coordinates></Point></Placemark><Placemark><name>Carmen martín del pozo</name><Point><coordinates>-4.73226,37.13547,0</coordinates></Point></Placemark><Placemark><name>Plaza Del Castillo 5</name><Point><coordinates>-1.89499,36.99658,0</coordinates></Point></Placemark><Placemark><name>José antonio blesa cantero</name><Point><coordinates>-1.89292,36.99813,0</coordinates></Point></Placemark><Placemark><name>N-341/AL-5105 Avenida De Almería</name><Point><coordinates>-1.89438,36.99937,0</coordinates></Point></Placemark><Placemark><name>Luisa moldenhauer carrillo&gt;34-95</name><Point><coordinates>-1.82176,37.17947,0</coordinates></Point></Placemark><Placemark><name>Samir al chaar mardini&gt;34-950398</name><Point><coordinates>-1.98166,37.1897,0</coordinates></Point></Placemark><Placemark><name>Farmácia pereira gago</name><Point><coordinates>-7.93286,37.01612,0</coordinates></Point></Placemark><Placemark><name>Farmácia higiene</name><Point><coordinates>-7.93399,37.01657,0</coordinates></Point></Placemark><Placemark><name>Farmácia alexandre</name><Point><coordinates>-7.93392,37.01677,0</coordinates></Point></Placemark><Placemark><name>Farmácia helena</name><Point><coordinates>-7.92843,37.01937,0</coordinates></Point></Placemark><Placemark><name>Farmácia torres</name><Point><coordinates>-7.93307,37.02172,0</coordinates></Point></Placemark><Placemark><name>Farmácia coelho</name><Point><coordinates>-7.93443,37.02373,0</coordinates></Point></Placemark><Placemark><name>Farmácia da penha</name><Point><coordinates>-7.92658,37.02386,0</coordinates></Point></Placemark><Placemark><name>Farmácia huguette ribeiro</name><Point><coordinates>-7.9454,37.05233,0</coordinates></Point></Placemark><Placemark><name>Ricardo conejo mostajo&gt;34-952714</name><Point><coordinates>-4.39001,37.09577,0</coordinates></Point></Placemark><Placemark><name>María angustias aragón moreno&gt;34</name><Point><coordinates>-4.38326,37.09653,0</coordinates></Point></Placemark><Placemark><name>Victoria gutiérrez cabello&gt;34-95</name><Point><coordinates>-4.33661,37.179,0</coordinates></Point></Placemark><Placemark><name>María josé molina pérez&gt;34-95274</name><Point><coordinates>-4.45038,37.18531,0</coordinates></Point></Placemark><Placemark><name>Gallardo medina y gallardo herre</name><Point><coordinates>-4.41402,37.26865,0</coordinates></Point></Placemark><Placemark><name>Francisco carmona zamora&gt;34-9503</name><Point><coordinates>-2.1242,37.09838,0</coordinates></Point></Placemark><Placemark><name>Eduardo valero gonzález&gt;34-95036</name><Point><coordinates>-2.2421,37.21157,0</coordinates></Point></Placemark><Placemark><name>Domingo jiménez garcía&gt;34-950122</name><Point><coordinates>-2.25715,37.26677,0</coordinates></Point></Placemark><Placemark><name>María isabel torrente granero&gt;34</name><Point><coordinates>-2.18143,37.28725,0</coordinates></Point></Placemark><Placemark><name>Jose maría ruiz sequera&gt;34-95881</name><Point><coordinates>-3.59822,37.15153,0</coordinates></Point></Placemark><Placemark><name>Purificación mingorance gutierre</name><Point><coordinates>-3.60095,37.15258,0</coordinates></Point></Placemark><Placemark><name>Alejandra cerda olmedo&gt;34-958293</name><Point><coordinates>-3.59818,37.15348,0</coordinates></Point></Placemark><Placemark><name>Maria dolores sánchez bueno&gt;34-9</name><Point><coordinates>-3.59218,37.15517,0</coordinates></Point></Placemark><Placemark><name>Amadora moas carballes&gt;34-958128</name><Point><coordinates>-3.59734,37.15533,0</coordinates></Point></Placemark><Placemark><name>Oscar javier faus dader&gt;34-95881</name><Point><coordinates>-3.59969,37.15556,0</coordinates></Point></Placemark><Placemark><name>Carmen jiménez molina&gt;34-9588116</name><Point><coordinates>-3.59123,37.15908,0</coordinates></Point></Placemark><Placemark><name>Rafael carrillo martínez&gt;34-9588</name><Point><coordinates>-3.59993,37.1594,0</coordinates></Point></Placemark><Placemark><name>Maria teresa recalde manrique&gt;34</name><Point><coordinates>-3.59418,37.15948,0</coordinates></Point></Placemark><Placemark><name>Salud maría jiménez lópez&gt;34-958</name><Point><coordinates>-3.59755,37.15997,0</coordinates></Point></Placemark><Placemark><name>Francisca jiménez garcía&gt;34-9588</name><Point><coordinates>-3.59417,37.16041,0</coordinates></Point></Placemark><Placemark><name>Teresa sánchez rodriguez&gt;34-9588</name><Point><coordinates>-3.59692,37.16062,0</coordinates></Point></Placemark><Placemark><name>Isabel de rosa barrecheguren&gt;34-</name><Point><coordinates>-3.58511,37.16109,0</coordinates></Point></Placemark><Placemark><name>José aguilar rodriguez&gt;34-958122</name><Point><coordinates>-3.59196,37.16199,0</coordinates></Point></Placemark><Placemark><name>Julia soledad garcía tunez&gt;34-95</name><Point><coordinates>-3.56985,37.16254,0</coordinates></Point></Placemark><Placemark><name>Andrés luís rodriguez escobar&gt;34</name><Point><coordinates>-3.58821,37.16286,0</coordinates></Point></Placemark><Placemark><name>Manuel garach galan&gt;34-958811551</name><Point><coordinates>-3.59454,37.16323,0</coordinates></Point></Placemark><Placemark><name>Maria luisa vallecillos jiménez</name><Point><coordinates>-3.59489,37.16463,0</coordinates></Point></Placemark><Placemark><name>Maria angeles roca fernández&gt;34-</name><Point><coordinates>-3.59964,37.16487,0</coordinates></Point></Placemark><Placemark><name>Carolina jiménez velasco&gt;34-9581</name><Point><coordinates>-3.58908,37.16489,0</coordinates></Point></Placemark><Placemark><name>Josefa poveda pareja&gt;34-95812085</name><Point><coordinates>-3.59455,37.16576,0</coordinates></Point></Placemark><Placemark><name>María de la cabeza gracia naranj</name><Point><coordinates>-3.59648,37.1665,0</coordinates></Point></Placemark><Placemark><name>Carmen martínez cañavete garcía</name><Point><coordinates>-3.59605,37.16754,0</coordinates></Point></Placemark><Placemark><name>Celia perales lópez&gt;34-958263720</name><Point><coordinates>-3.59643,37.16814,0</coordinates></Point></Placemark><Placemark><name>Bernardo lópez sánchez&gt;34-958263</name><Point><coordinates>-3.59961,37.1689,0</coordinates></Point></Placemark><Placemark><name>Juán antonio siles morillas&gt;34-9</name><Point><coordinates>-3.59706,37.17078,0</coordinates></Point></Placemark><Placemark><name>Juán domingo conde&gt;34-958263068</name><Point><coordinates>-3.59896,37.17158,0</coordinates></Point></Placemark><Placemark><name>Juán eloy jiménez barrionuevo&gt;34</name><Point><coordinates>-3.59701,37.17277,0</coordinates></Point></Placemark><Placemark><name>Eloisa ramos ontiveros&gt;34-958222</name><Point><coordinates>-3.59857,37.17311,0</coordinates></Point></Placemark><Placemark><name>Manuel josé gallegos muñoz&gt;34-95</name><Point><coordinates>-3.59724,37.17319,0</coordinates></Point></Placemark><Placemark><name>Maria luisa lorenzo tovar&gt;34-958</name><Point><coordinates>-3.59378,37.1734,0</coordinates></Point></Placemark><Placemark><name>Eloina pérez andrad cabrerizo&gt;34</name><Point><coordinates>-3.59565,37.1738,0</coordinates></Point></Placemark><Placemark><name>Miguel martín valverde&gt;34-958262</name><Point><coordinates>-3.59924,37.17387,0</coordinates></Point></Placemark><Placemark><name>Maria del carmen alba rios&gt;34-95</name><Point><coordinates>-3.59915,37.17446,0</coordinates></Point></Placemark><Placemark><name>Carlos martínez martínez&gt;34-9582</name><Point><coordinates>-3.59862,37.17483,0</coordinates></Point></Placemark><Placemark><name>Farmacia gran vía&gt;34-958222990</name><Point><coordinates>-3.5977,37.17609,0</coordinates></Point></Placemark><Placemark><name>Jesús olivares lucas&gt;34-95822120</name><Point><coordinates>-3.59664,37.17625,0</coordinates></Point></Placemark><Placemark><name>Mariano peláez páramo&gt;34-9582229</name><Point><coordinates>-3.59629,37.17644,0</coordinates></Point></Placemark><Placemark><name>Herminia molinero gordo&gt;34-95827</name><Point><coordinates>-3.59969,37.17686,0</coordinates></Point></Placemark><Placemark><name>Francisco ortiz saracho suerio&gt;3</name><Point><coordinates>-3.59835,37.17723,0</coordinates></Point></Placemark><Placemark><name>Mercedes pérez del castillo&gt;34-9</name><Point><coordinates>-3.59861,37.17778,0</coordinates></Point></Placemark><Placemark><name>Pablo acosta vera&gt;34-958278442</name><Point><coordinates>-3.59931,37.17884,0</coordinates></Point></Placemark><Placemark><name>Piedad garcía fernández&gt;34-95827</name><Point><coordinates>-3.59352,37.18092,0</coordinates></Point></Placemark><Placemark><name>Carmen garcía fernández</name><Point><coordinates>-3.59999,37.18418,0</coordinates></Point></Placemark><Placemark><name>Juán ignacio marín lópez&gt;34-9582</name><Point><coordinates>-3.59997,37.18685,0</coordinates></Point></Placemark><Placemark><name>Jesús calzas urrutia&gt;34-95820186</name><Point><coordinates>-3.59185,37.18692,0</coordinates></Point></Placemark><Placemark><name>Margarita castellón de la hoz&gt;34</name><Point><coordinates>-3.60316,37.1547,0</coordinates></Point></Placemark><Placemark><name>María del carmen ceres hidalgo&gt;3</name><Point><coordinates>-3.60514,37.15493,0</coordinates></Point></Placemark><Placemark><name>Concepción avilés pardo&gt;34-95817</name><Point><coordinates>-3.60157,37.15531,0</coordinates></Point></Placemark><Placemark><name>Maria del pilar malo poyatos&gt;34-</name><Point><coordinates>-3.60307,37.15626,0</coordinates></Point></Placemark><Placemark><name>Pilar galisteo cano&gt;34-958812152</name><Point><coordinates>-3.60004,37.15747,0</coordinates></Point></Placemark><Placemark><name>Beatriz gonzález duro&gt;34-9588184</name><Point><coordinates>-3.60145,37.16109,0</coordinates></Point></Placemark><Placemark><name>Maria teresa bautista méndez&gt;34-</name><Point><coordinates>-3.60258,37.16371,0</coordinates></Point></Placemark><Placemark><name>Dolores pérez alba&gt;34-958276590</name><Point><coordinates>-3.60243,37.16436,0</coordinates></Point></Placemark><Placemark><name>Victor maiquez cañizares&gt;34-9588</name><Point><coordinates>-3.60162,37.16438,0</coordinates></Point></Placemark><Placemark><name>Andrés josé escobar aznar</name><Point><coordinates>-3.60591,37.16471,0</coordinates></Point></Placemark><Placemark><name>Dolores rubio paves&gt;34-958157433</name><Point><coordinates>-3.60034,37.16635,0</coordinates></Point></Placemark><Placemark><name>Carmen medina bazán&gt;34-958250627</name><Point><coordinates>-3.60169,37.16644,0</coordinates></Point></Placemark><Placemark><name>Elena guerrero lópez&gt;34-95826762</name><Point><coordinates>-3.60701,37.16661,0</coordinates></Point></Placemark><Placemark><name>Francisco lamenca gonzález&gt;34-95</name><Point><coordinates>-3.60563,37.16714,0</coordinates></Point></Placemark><Placemark><name>María frasquet frasquet&gt;34-95825</name><Point><coordinates>-3.60412,37.16725,0</coordinates></Point></Placemark><Placemark><name>Concepción iborra terriza&gt;34-958</name><Point><coordinates>-3.60315,37.16743,0</coordinates></Point></Placemark><Placemark><name>Trinidad cabezas alguacil&gt;34-958</name><Point><coordinates>-3.60511,37.1691,0</coordinates></Point></Placemark><Placemark><name>Dámaso alonso matias&gt;34-95825287</name><Point><coordinates>-3.60281,37.16917,0</coordinates></Point></Placemark><Placemark><name>Carlos eduardo cuerda retamero&gt;3</name><Point><coordinates>-3.60735,37.16997,0</coordinates></Point></Placemark><Placemark><name>Juan angel fernández jiménez&gt;34-</name><Point><coordinates>-3.60355,37.17052,0</coordinates></Point></Placemark><Placemark><name>Jose ramón giménez sánchez&gt;34-95</name><Point><coordinates>-3.60122,37.17078,0</coordinates></Point></Placemark><Placemark><name>Mercedes acosta ferrer&gt;34-958252</name><Point><coordinates>-3.60647,37.17137,0</coordinates></Point></Placemark><Placemark><name>Elisa marinetto sánchez&gt;34-95824</name><Point><coordinates>-3.60244,37.17197,0</coordinates></Point></Placemark><Placemark><name>Carmen bullejos garcía&gt;34-958263</name><Point><coordinates>-3.6061,37.17232,0</coordinates></Point></Placemark><Placemark><name>Jaime ruiz valero&gt;34-958264145</name><Point><coordinates>-3.60425,37.17277,0</coordinates></Point></Placemark><Placemark><name>Carmen zayas acosta&gt;34-958251541</name><Point><coordinates>-3.60771,37.17335,0</coordinates></Point></Placemark><Placemark><name>Rafael tallón padial&gt;34-95825489</name><Point><coordinates>-3.60695,37.1736,0</coordinates></Point></Placemark><Placemark><name>Jose luís cristia tamayo&gt;34-9582</name><Point><coordinates>-3.60616,37.17412,0</coordinates></Point></Placemark><Placemark><name>Gloria carrillo carrillo&gt;34-9582</name><Point><coordinates>-3.60017,37.17412,0</coordinates></Point></Placemark><Placemark><name>Maria del pilar jiménez romano&gt;3</name><Point><coordinates>-3.60438,37.17438,0</coordinates></Point></Placemark><Placemark><name>Andrés josé escobar aznar marín</name><Point><coordinates>-3.60117,37.17461,0</coordinates></Point></Placemark><Placemark><name>Carmen sánchez molina&gt;34-9582701</name><Point><coordinates>-3.60816,37.17522,0</coordinates></Point></Placemark><Placemark><name>Silverio casares córdoba&gt;34-9582</name><Point><coordinates>-3.60033,37.1758,0</coordinates></Point></Placemark><Placemark><name>Laura montilla gómez&gt;34-95827828</name><Point><coordinates>-3.60124,37.17611,0</coordinates></Point></Placemark><Placemark><name>José chinquilla rodriguez&gt;34-958</name><Point><coordinates>-3.60043,37.17626,0</coordinates></Point></Placemark><Placemark><name>María islan molero&gt;34-958278502</name><Point><coordinates>-3.60548,37.17681,0</coordinates></Point></Placemark><Placemark><name>Mercedes garcía mellado&gt;34-95829</name><Point><coordinates>-3.60255,37.1772,0</coordinates></Point></Placemark><Placemark><name>Jose luís martínez del marmol al</name><Point><coordinates>-3.60326,37.17723,0</coordinates></Point></Placemark><Placemark><name>Inmaculada morales gordo&gt;34-9582</name><Point><coordinates>-3.60015,37.17728,0</coordinates></Point></Placemark><Placemark><name>Mara luisa montero sánchez&gt;34-95</name><Point><coordinates>-3.60907,37.17743,0</coordinates></Point></Placemark><Placemark><name>Maria isabel vera nieto&gt;34-95827</name><Point><coordinates>-3.60652,37.1775,0</coordinates></Point></Placemark><Placemark><name>Mercedes lópez frias&gt;34-95829240</name><Point><coordinates>-3.60988,37.17821,0</coordinates></Point></Placemark><Placemark><name>Jose luís nestares garcía treu&gt;3</name><Point><coordinates>-3.6036,37.17895,0</coordinates></Point></Placemark><Placemark><name>Manuel fuentes rodriguez&gt;34-9582</name><Point><coordinates>-3.61142,37.17906,0</coordinates></Point></Placemark><Placemark><name>Francisca pelayo montealegre&gt;34-</name><Point><coordinates>-3.60349,37.17919,0</coordinates></Point></Placemark><Placemark><name>Maria francisca méndez molina&gt;34</name><Point><coordinates>-3.61131,37.17924,0</coordinates></Point></Placemark><Placemark><name>Jose martínez martínez&gt;34-958205</name><Point><coordinates>-3.6129,37.17926,0</coordinates></Point></Placemark><Placemark><name>Concepción pérez garcía&gt;34-95820</name><Point><coordinates>-3.60295,37.17977,0</coordinates></Point></Placemark><Placemark><name>Salud maria vilela serrano&gt;34-95</name><Point><coordinates>-3.60745,37.1799,0</coordinates></Point></Placemark><Placemark><name>Josefina valero sánchez&gt;34-95820</name><Point><coordinates>-3.60037,37.18098,0</coordinates></Point></Placemark><Placemark><name>Bartolomé paredes pacheco&gt;34-958</name><Point><coordinates>-3.61257,37.1813,0</coordinates></Point></Placemark><Placemark><name>Rosa maría pérez avila&gt;34-958203</name><Point><coordinates>-3.61455,37.18151,0</coordinates></Point></Placemark><Placemark><name>Jose maria lópez lópez&gt;34-958202</name><Point><coordinates>-3.60097,37.18206,0</coordinates></Point></Placemark><Placemark><name>Ricardo jiménez hernández&gt;34-958</name><Point><coordinates>-3.60244,37.18222,0</coordinates></Point></Placemark><Placemark><name>Aguilera</name><Point><coordinates>-3.60355,37.18381,0</coordinates></Point></Placemark><Placemark><name>Maria del carmen gómez medina</name><Point><coordinates>-3.60554,37.18444,0</coordinates></Point></Placemark><Placemark><name>Rosario alcalá garcía&gt;34-9582026</name><Point><coordinates>-3.60876,37.18471,0</coordinates></Point></Placemark><Placemark><name>Maria dolores gómez acha&gt;34-9582</name><Point><coordinates>-3.61257,37.1851,0</coordinates></Point></Placemark><Placemark><name>Rafael angel mora montes</name><Point><coordinates>-3.60642,37.18518,0</coordinates></Point></Placemark><Placemark><name>Eustaquio molina martínez&gt;34-958</name><Point><coordinates>-3.61274,37.18576,0</coordinates></Point></Placemark><Placemark><name>Juán ocete martínez&gt;34-958287575</name><Point><coordinates>-3.60834,37.18627,0</coordinates></Point></Placemark><Placemark><name>Sol vera guglieri cruz&gt;34-958202</name><Point><coordinates>-3.60331,37.18645,0</coordinates></Point></Placemark><Placemark><name>Rosario pinto escalante</name><Point><coordinates>-3.61032,37.18681,0</coordinates></Point></Placemark><Placemark><name>Felisa saenz de buruaga lerena&gt;3</name><Point><coordinates>-3.6074,37.18782,0</coordinates></Point></Placemark><Placemark><name>Rafaela moyano moyano&gt;34-9582723</name><Point><coordinates>-3.61415,37.18806,0</coordinates></Point></Placemark><Placemark><name>Encarnación garcía rodriguez&gt;34-</name><Point><coordinates>-3.61811,37.18811,0</coordinates></Point></Placemark><Placemark><name>Maria luisa cardona urda&gt;34-9584</name><Point><coordinates>-3.72106,37.18907,0</coordinates></Point></Placemark><Placemark><name>Estefanía ogayar sánchez&gt;34-9582</name><Point><coordinates>-3.61018,37.18927,0</coordinates></Point></Placemark><Placemark><name>Jose maria ballester aparicio&gt;34</name><Point><coordinates>-3.60861,37.18967,0</coordinates></Point></Placemark><Placemark><name>Carolina garrido torres puchol&gt;3</name><Point><coordinates>-3.61091,37.18988,0</coordinates></Point></Placemark><Placemark><name>Miguel jiménez millán&gt;34-9581604</name><Point><coordinates>-3.60352,37.18989,0</coordinates></Point></Placemark><Placemark><name>Jesús saenz de buruaga lerena&gt;34</name><Point><coordinates>-3.60668,37.1903,0</coordinates></Point></Placemark><Placemark><name>Concepción espinosa ballesteros</name><Point><coordinates>-3.60998,37.19048,0</coordinates></Point></Placemark><Placemark><name>Jose gonzález garcía&gt;34-95820121</name><Point><coordinates>-3.62057,37.19062,0</coordinates></Point></Placemark><Placemark><name>Luis rancaño lasso de la vega&gt;34</name><Point><coordinates>-3.62491,37.19091,0</coordinates></Point></Placemark><Placemark><name>Gloria fernández garcía&gt;34-95820</name><Point><coordinates>-3.62348,37.19173,0</coordinates></Point></Placemark><Placemark><name>Victoria pozo garcía&gt;34-95844606</name><Point><coordinates>-3.77469,37.19364,0</coordinates></Point></Placemark><Placemark><name>Isabel morales collantes&gt;34-9582</name><Point><coordinates>-3.62545,37.19386,0</coordinates></Point></Placemark><Placemark><name>Jose manuel santamaría lópez</name><Point><coordinates>-3.62308,37.19403,0</coordinates></Point></Placemark><Placemark><name>Farmacia Santamaria&gt;34958154949</name><Point><coordinates>-3.62278,37.19464,0</coordinates></Point></Placemark><Placemark><name>Jose heras ruiz&gt;34-958154074</name><Point><coordinates>-3.60178,37.19567,0</coordinates></Point></Placemark><Placemark><name>Pilar gonzález rodriguez&gt;34-9581</name><Point><coordinates>-3.60437,37.19662,0</coordinates></Point></Placemark><Placemark><name>Cristina tamayo lópez&gt;34-9581531</name><Point><coordinates>-3.60419,37.19829,0</coordinates></Point></Placemark><Placemark><name>Fernando lópez justicia&gt;34-95815</name><Point><coordinates>-3.60221,37.19945,0</coordinates></Point></Placemark><Placemark><name>Jose sánchez medina&gt;34-958151920</name><Point><coordinates>-3.61038,37.20015,0</coordinates></Point></Placemark><Placemark><name>Marina serrano peñuela&gt;34-958152</name><Point><coordinates>-3.59766,37.20312,0</coordinates></Point></Placemark><Placemark><name>Adoración espinosa cabezas</name><Point><coordinates>-3.5664,37.23728,0</coordinates></Point></Placemark><Placemark><name>Carmen lópez benítez&gt;34-95815830</name><Point><coordinates>-3.60313,37.20238,0</coordinates></Point></Placemark><Placemark><name>Mercedes barrionuevo díaz&gt;34-958</name><Point><coordinates>-3.60419,37.20306,0</coordinates></Point></Placemark><Placemark><name>Jesús sierra ruiz de la fuente&gt;3</name><Point><coordinates>-3.60026,37.20375,0</coordinates></Point></Placemark><Placemark><name>Josefina herrero iñíguez&gt;34-9581</name><Point><coordinates>-3.61124,37.20444,0</coordinates></Point></Placemark><Placemark><name>Sebastiana orencia suazo garcía</name><Point><coordinates>-3.6046,37.20515,0</coordinates></Point></Placemark><Placemark><name>Fermín cabrera garrido&gt;34-958151</name><Point><coordinates>-3.6058,37.20626,0</coordinates></Point></Placemark><Placemark><name>Jose aguilera giménez</name><Point><coordinates>-3.63159,37.20647,0</coordinates></Point></Placemark><Placemark><name>Encarnación castro marín</name><Point><coordinates>-3.62977,37.20655,0</coordinates></Point></Placemark><Placemark><name>Carmen ramírez va&gt;34-958222226</name><Point><coordinates>-3.63537,37.20677,0</coordinates></Point></Placemark><Placemark><name>Carmen sánchez montesinos garcía</name><Point><coordinates>-3.63691,37.20705,0</coordinates></Point></Placemark><Placemark><name>Mariano zayas fernández córdoba</name><Point><coordinates>-3.61502,37.20832,0</coordinates></Point></Placemark><Placemark><name>Juán josé granados martín&gt;34-958</name><Point><coordinates>-3.61736,37.20885,0</coordinates></Point></Placemark><Placemark><name>Concepción bravo díaz&gt;34-9585451</name><Point><coordinates>-3.48178,37.21812,0</coordinates></Point></Placemark><Placemark><name>Josefina cordero garcía&gt;34-95843</name><Point><coordinates>-3.69411,37.2209,0</coordinates></Point></Placemark><Placemark><name>Jose castillo osuna&gt;34-958438015</name><Point><coordinates>-3.68522,37.22296,0</coordinates></Point></Placemark><Placemark><name>Josefina sánchez sánchez&gt;34-9584</name><Point><coordinates>-3.65435,37.22856,0</coordinates></Point></Placemark><Placemark><name>Miguel gonzález vázquez&gt;34-95845</name><Point><coordinates>-3.75145,37.25159,0</coordinates></Point></Placemark><Placemark><name>María rosario peis redondo&gt;34-95</name><Point><coordinates>-3.62192,37.27299,0</coordinates></Point></Placemark><Placemark><name>Francisco valero jerez&gt;34-958465</name><Point><coordinates>-3.65757,37.29066,0</coordinates></Point></Placemark><Placemark><name>Jose antonio escacena ruiz-tagle</name><Point><coordinates>-5.92386,37.16011,0</coordinates></Point></Placemark><Placemark><name>Diego gordillo gregorio&gt;34-95486</name><Point><coordinates>-5.77862,37.17993,0</coordinates></Point></Placemark><Placemark><name>Juan ceballos santa maria&gt;34-954</name><Point><coordinates>-5.78221,37.18193,0</coordinates></Point></Placemark><Placemark><name>Ignacio torres pacheco&gt;34-954860</name><Point><coordinates>-5.78332,37.18357,0</coordinates></Point></Placemark><Placemark><name>Jerónimo barrera trigueros&gt;34-95</name><Point><coordinates>-6.07109,37.26176,0</coordinates></Point></Placemark><Placemark><name>Manuel alvarez gutierrez&gt;34-9547</name><Point><coordinates>-5.93815,37.26854,0</coordinates></Point></Placemark><Placemark><name>Luis alonso pérez-tinao&gt;34-95472</name><Point><coordinates>-5.92987,37.27413,0</coordinates></Point></Placemark><Placemark><name>Carmen lópez romero&gt;34-954720553</name><Point><coordinates>-5.91938,37.27877,0</coordinates></Point></Placemark><Placemark><name>Maria de las nieves ruiz marin&gt;3</name><Point><coordinates>-5.93053,37.28017,0</coordinates></Point></Placemark><Placemark><name>Miguel sánchez saldón&gt;34-9547701</name><Point><coordinates>-6.05207,37.28313,0</coordinates></Point></Placemark><Placemark><name>Rafael benitez sanchez-cid&gt;34-95</name><Point><coordinates>-5.92294,37.28327,0</coordinates></Point></Placemark><Placemark><name>Farmacia santa maria&gt;34-95477006</name><Point><coordinates>-6.05794,37.28709,0</coordinates></Point></Placemark><Placemark><name>Juan luis paez de la vega&gt;34-954</name><Point><coordinates>-5.91371,37.28736,0</coordinates></Point></Placemark><Placemark><name>Encarnación fernandez giraldez&gt;3</name><Point><coordinates>-6.05443,37.28755,0</coordinates></Point></Placemark><Placemark><name>José cabezuelo rodriguez&gt;34-9547</name><Point><coordinates>-5.91707,37.29177,0</coordinates></Point></Placemark><Placemark><name>Farmacia Calle Asensio Y Toledo</name><Point><coordinates>-5.96715,37.32474,0</coordinates></Point></Placemark><Placemark><name>Carmen lópez portillo&gt;34-9556843</name><Point><coordinates>-5.8535,37.32757,0</coordinates></Point></Placemark><Placemark><name>Maria teresa y marina jaldón&gt;34-</name><Point><coordinates>-6.02514,37.33752,0</coordinates></Point></Placemark><Placemark><name>Jose antonio rafael venegas&gt;34-9</name><Point><coordinates>-5.97966,37.34702,0</coordinates></Point></Placemark><Placemark><name>Margarita gonzález alvarez&gt;34-95</name><Point><coordinates>-5.9759,37.35371,0</coordinates></Point></Placemark><Placemark><name>Inmaculada aramburu gonzález&gt;34-</name><Point><coordinates>-5.94973,37.37075,0</coordinates></Point></Placemark><Placemark><name>Guadalupe ruiz alvarez&gt;34-954519</name><Point><coordinates>-5.93126,37.374,0</coordinates></Point></Placemark><Placemark><name>Juan rodríguez fernández de cañe</name><Point><coordinates>-5.90115,37.381,0</coordinates></Point></Placemark><Placemark><name>Manuel ojeda casares&gt;34-95440371</name><Point><coordinates>-5.90593,37.38386,0</coordinates></Point></Placemark><Placemark><name>Rodríguez gonzález rivas&gt;34-9545</name><Point><coordinates>-5.94919,37.38454,0</coordinates></Point></Placemark><Placemark><name>Farmacia Calle Amor</name><Point><coordinates>-5.94399,37.3846,0</coordinates></Point></Placemark><Placemark><name>Isabel andrés martín&gt;34-95452521</name><Point><coordinates>-5.94677,37.38486,0</coordinates></Point></Placemark><Placemark><name>Francisco prado mendoza&gt;34-95440</name><Point><coordinates>-5.90933,37.38555,0</coordinates></Point></Placemark><Placemark><name>Pilar abad martín de eugenio</name><Point><coordinates>-5.90142,37.38724,0</coordinates></Point></Placemark><Placemark><name>Maria pilar santamaría lozano&gt;34</name><Point><coordinates>-5.92189,37.39514,0</coordinates></Point></Placemark><Placemark><name>Rafael martín cartes&gt;34-95461763</name><Point><coordinates>-5.97174,37.35739,0</coordinates></Point></Placemark><Placemark><name>Farmacia Calle Bami</name><Point><coordinates>-5.9785,37.35911,0</coordinates></Point></Placemark><Placemark><name>Farmacia. Bami</name><Point><coordinates>-5.97843,37.35911,0</coordinates></Point></Placemark><Placemark><name>Maria luisa fuentes castillo&gt;34-</name><Point><coordinates>-5.96937,37.35969,0</coordinates></Point></Placemark><Placemark><name>Placida quiles muñoz</name><Point><coordinates>-4.14933,37.16513,0</coordinates></Point></Placemark><Placemark><name>Francisco javier valseca montaño</name><Point><coordinates>-4.14769,37.16675,0</coordinates></Point></Placemark><Placemark><name>Fernando gómez gallardo</name><Point><coordinates>-4.15128,37.16846,0</coordinates></Point></Placemark><Placemark><name>Carmen inés corrales oprtega</name><Point><coordinates>-4.15048,37.17107,0</coordinates></Point></Placemark><Placemark><name>Luisa rodriguez vázquez&gt;34-95833</name><Point><coordinates>-4.04697,37.19625,0</coordinates></Point></Placemark><Placemark><name>Inmaculada romero vera&gt;34-958672</name><Point><coordinates>-3.15934,37.18563,0</coordinates></Point></Placemark><Placemark><name>Carmen ramos hernández&gt;34-958660</name><Point><coordinates>-3.13169,37.30022,0</coordinates></Point></Placemark><Placemark><name>Jose antonio jiménez de la paz&gt;3</name><Point><coordinates>-2.97267,37.37081,0</coordinates></Point></Placemark>